"names","lat","lon"
"Ochojec Wapienna",50.2210272,18.9896572
"Ochojec Sadowa",50.2161415,18.9899278
"Ochojec Ziołowa",50.2131734,18.9887092
"Piotrowice Skrzyżowanie",50.2092333,18.9740975
"Piotrowice Dworzec PKP",50.2158699,18.9717151
"Giszowiec Karolinki",50.2267764,19.0563943
"Siemianowice Kolonia Wojewódzka",50.2928756,19.0484704
"Zawodzie Waleriana",50.2596028,19.0473396
"Sosnowiec Rondo Ludwik",50.2732009,19.1453419
"Sosnowiec Egzotarium",50.2834232,19.1057637
"Sosnowiec Aleja Mireckiego",50.278943,19.1158898
"Dańdówka Cmentarz",50.2690212,19.1688907
"Chorzów Batory",50.2784458,18.9446898
"Świętochłowice",50.289129,18.9181552
"Chorzów Racławicka",50.282022,18.9493395
"Osiedle Kukuczki Podhalańska",50.2718764,19.0489339
"Muchowiec Park",50.2347552,19.0261771
"Katowice Sokolska",50.2642022,19.0181862
"Dąbrówka Mała Centrum Handlowe",50.2679102,19.0570859
"Katowice Ligota",50.2260011,18.977841
"Katowice Brynów",50.2442472,18.9833474
"Katowice",50.2573798,19.017078
"Środula K-D",50.3000796,19.1607552
"Chorzów Hala Sportowa(Chorzów)",50.2855,18.9410813
"Giszowiec Kościół",50.2241659,19.063466
"Giszowiec Kolista Pętla",50.2286518,19.059942
"Zawodzie Uniwersytet Ekonomiczny",50.2583845,19.0465483
"Katowice Damrota",50.2578982,19.030812
"Katowice Rynek (Teatr Śl.)",50.2592616,19.0232546
"Zawodzie Paderewskiego",50.2580094,19.0400378
"Katowice Rondo",50.2643607,19.023589
"Katowice Zawodzie",50.2574919,19.0574884
"Katowice Piotrowice",50.2134589,18.9701255
"Katowice Podlesie",50.1829289,18.9602958
"Zawodzie Ośrodek Sportowy",50.2593059,19.0559892
"Zawodzie Pętla",50.2596991,19.0643276
"Giszowiec Mysłowicka",50.2265593,19.068644
"Giszowiec Mysłowicka",50.2260548,19.069883
"Giszowiec Szyb Roździeński",50.2221156,19.0757153
"Giszowiec Przyjemna",50.2195449,19.0715464
"Giszowiec Radosna",50.2233377,19.0669877
"Zawodzie Ośrodek Sportowy",50.2593175,19.0551463
"Zawodzie Łączna",50.2595385,19.0609755
"Nikiszowiec Szyb Wilson",50.2499648,19.08192
"Kolonia Wysockiego Kulika",50.2361655,19.0734412
"Kolonia Wysockiego Woźniaków",50.2341602,19.0699974
"Giszowiec Przyjazna",50.2220111,19.0702916
"Giszowiec Przyjazna",50.2215808,19.0703915
"Sosnowiec Główny",50.2788915,19.1264252
"Janów Leśnego Potoku",50.2423478,19.0938688
"Janów Zamkowa",50.2422193,19.0889435
"Nikiszowiec Kościół",50.243591,19.0818343
"Koszutka Słoneczna Pętla",50.2738148,19.0244164
"Wełnowiec Kościół",50.2783224,19.0208553
"Wełnowiec Kościół",50.278565,19.0208158
"Milowice Most",50.2915861,19.0730827
"Giszowiec Kopalnia Staszic",50.2245318,19.0489915
"Zagórze Mec",50.2970662,19.184535
"Janów Lwowska Szkoła",50.2478522,19.0895186
"Wełnowiec Plac Alfreda",50.29288,19.0144314
"Wełnowiec Plac Alfreda",50.2926027,19.014421
"Brzezinka Topolowa",50.2078641,19.1478416
"Brzezinka Reja",50.2064666,19.1579927
"Dąb Kościół",50.2708944,18.9972183
"Dąb Silesia City Center",50.2695073,19.0029349
"Dąb Huta Baildon",50.267964,19.0096965
"Katowice Stęślickiego",50.2669106,19.014192
"Katowice Sokolska",50.265859,19.0185049
"Katowice Plac Miarki",50.2544077,19.0177279
"Katowice Jordana",50.2517621,19.015102
"Załęże Dwór",50.2675889,18.990355
"Brynów Drozdów",50.2348078,19.0001199
"Brynów Słowików",50.2314666,18.9973252
"Brynów Pętla",50.2270542,18.9947379
"Chorzów Polna",50.3133125,18.9482312
"Piaśniki Skrzyżowanie",50.3043339,18.9190841
"Świętochłowice Kościół",50.2909861,18.9170119
"Świętochłowice Muzeum Powstań Śląskich",50.2884756,18.9235086
"Chorzów Miasto",50.2985496,18.9498988
"Zawodzie Waleriana",50.2597664,19.0474842
"Murcki Rynek",50.1979536,19.0433534
"Zawodzie Bohaterów Monte Cassino",50.259902,19.0532187
"Murcki Bielska",50.1982919,19.045275
"Murcki Bielska",50.1977364,19.045499
"Murcki Osiedle",50.2037677,19.0430359
"Murcki Dolina Murckowska",50.1999856,19.0522003
"Murcki Szyb Stanisław",50.2064917,19.0419426
"Dąbrowa Górnicza Urząd Pracy",50.3235594,19.1672619
"Osiedle Mydlice Szpital",50.3190669,19.1781325
"Koszelew",50.3222203,19.1566674
"Będzin Rondo",50.3247713,19.1242038
"Dąbrowa Górnicza Centrum",50.3255851,19.1856438
"Dąbrowa Górnicza Centrum",50.3253282,19.1873164
"Dąbrowa Górnicza Huta Bankowa",50.3250559,19.174486
"Dąbrowa Górnicza Sienkiewicza",50.3257088,19.1819811
"Będzin Słowiańska",50.3082539,19.1374126
"Czeladź Wodociągi n/ż",50.3202974,19.089813
"Milowice Centrum Handlowe",50.2851134,19.1013046
"Janów Zamkowa Skwer",50.2439367,19.0852477
"Muchowiec 73 Pułku Piechoty n/ż",50.2270433,19.0276742
"Ochojec Szpital",50.2120241,18.9993349
"Piotrowice Osiedle",50.21044,18.9825822
"Piotrowice Fabryka Maszyn",50.2128107,18.973134
"Ligota Poleska",50.2230235,18.9696542
"Ligota Szpital",50.2247483,18.9577859
"Ligota Akademiki",50.218075,18.9585562
"Janów Lwowska Szkoła",50.247866,19.0898392
"Giszowiec Karolinki",50.2270922,19.0555682
"Ligota Bronisławy",50.22103,18.9596442
"Katowice Mariacka",50.257109,19.0281393
"Giszowiec Przyjemna",50.2193781,19.0727939
"Osiedle Paderewskiego Trzy Stawy",50.2422433,19.0359564
"Osiedle Paderewskiego Trzy Stawy",50.243434,19.0361425
"Giszowiec Osiedle",50.2240246,19.0583341
"Giszowiec Osiedle",50.2240241,19.0585123
"Burowiec",50.2682877,19.0792382
"Zawodzie Pętla",50.2598878,19.0632925
"Siemianowice Plac Skargi",50.2985002,19.0272701
"Park Śląski Wejście Główne",50.280826,18.9783961
"Chorzów Batory Zajezdnia",50.2744223,18.956519
"Chorzów Floriańska",50.3031563,18.9457571
"Chorzów Rynek",50.2980494,18.9546371
"Chorzów Batory Zajezdnia",50.2747787,18.9551386
"Chorzów Metalowców",50.3031734,18.9518987
"Chorzów Wodociągi",50.3027354,18.934349
"Chorzów Racławicka",50.2810121,18.9467369
"Chorzów Stadion Śląski Pętla Zach.",50.2870858,18.9694808
"Chorzów Bałtycka",50.2871164,18.9393751
"Chorzów Chopina",50.2941473,18.9573942
"Chorzów Sobieskiego",50.2946912,18.9508552
"Chorzów Dworcowa",50.2979544,18.9517903
"Załęże Wiśniowa",50.2693077,18.9801792
"Świętochłowice Mijanka",50.2862435,18.9281454
"Lipiny Kościół",50.307341,18.9040212
"Załęże Dom Kultury",50.2701368,18.9750621
"Chorzów Żeromskiego",50.2943645,18.948925
"Park Śląski Ogród Zoologiczny",50.2764299,18.9856029
"Chorzów Cmentarna",50.2887592,18.9473218
"Park Śląski Wesołe Miasteczko",50.2724749,18.9914964
"Środula Prusa",50.2954518,19.1598818
"Środula Prusa",50.295411,19.1602504
"Węzłowiec Pętla",50.304996,18.9969101
"Sielec Osiedle Zamkowa",50.2862532,19.1488735
"Konstantynów Fabryczna",50.2914658,19.1475652
"Konstantynów Okrzei",50.2952707,19.1450509
"Dąbrówka Mała Pawilon Agata",50.2679222,19.0553162
"Środula K-D",50.3005962,19.1573695
"Łagiewniki Cmentarz",50.325029,18.9439783
"Łagiewniki Media-Markt",50.3213201,18.9452888
"Łagiewniki Zajezdnia",50.3179319,18.9464667
"Chorzów AKS",50.2898182,18.9642631
"Chorzów Stadion Śląski",50.2875166,18.9678662
"Katowice Stadion AWF",50.2484883,19.012277
"Katowice Kościuszki Szpital",50.2462193,19.0102233
"Brynów Zgrzebnioka",50.2404101,19.0050285
"Koszutka Misjonarzy Oblatów",50.2699072,19.0244451
"Sosnowiec Dworzec PKP",50.2784533,19.1271978
"Sosnowiec Dworzec PKP",50.2780115,19.1268689
"Lipiny Targowisko",50.3068579,18.8982812
"Chropaczów Lampego",50.3160856,18.9157419
"Lipiny Targowisko",50.306779,18.8982156
"Lipiny Mijanka",50.3079644,18.900429
"Lipiny Bukowego",50.3088552,18.9039981
"Chropaczów Szkoła",50.3112298,18.9128544
"Chropaczów Ratusz",50.3140549,18.9132871
"Milowice Centrum Handlowe",50.2866756,19.1031394
"Chorzów Kościół św. Jadwigi",50.2917641,18.945887
"Konstantynów Centrum Handlowe",50.2884927,19.1489167
"Sielec Osiedle Zamkowa",50.2866801,19.1490027
"Sielec Narutowicza",50.2778511,19.1477856
"Sielec Narutowicza",50.2785445,19.1478639
"Sielec Park",50.2837278,19.1385323
"Sosnowiec Dworzec PKP",50.2782369,19.1270017
"Sielec Osiedle Zamkowa",50.2870956,19.1481397
"Sosnowiec Rondo Ludwik",50.2733424,19.1455198
"Sosnowiec Sobieskiego",50.2768916,19.1192629
"Sosnowiec Ostrogórska",50.2733594,19.1357536
"Sosnowiec Ostrogórska",50.2741597,19.1344074
"Sosnowiec Dęblińska",50.275751,19.1236798
"Sosnowiec Wspólna",50.2744746,19.1274782
"Środula Osiedle",50.2912326,19.160856
"Nikiszowiec Kościół",50.243665,19.08222
"Katowice Dąbrówki",50.2618811,19.0088048
"Dańdówka Dworzec PKP",50.2658877,19.1759342
"Dańdówka Skrzyżowanie",50.2689556,19.1759058
"Niwka Fabryka",50.2429412,19.1593565
"Dańdówka Klonowa",50.2725805,19.1779071
"Klimontów Makuszyńskiego",50.2737993,19.1829705
"Czeladź Kombatantów",50.3202859,19.0723056
"Koszutka Słoneczna",50.2728863,19.0247472
"Katowice Graniczna",50.257578,19.0365498
"Zawodzie Pętla",50.2597681,19.0633843
"Szopienice Roździeńska",50.2621913,19.0716046
"Szopienice Wodociągi",50.2649712,19.0725251
"Koszutka Jesionowa",50.2740026,19.024204
"Wełnowiec Gnieźnieńska",50.2832858,19.0190939
"Siemianowice Mijanka",50.2949934,19.0246304
"Szopienice Poczta",50.2645623,19.0907985
"Katowice Szopienice Południowe",50.258939,19.0924453
"Szopienice Dwór",50.2620142,19.1016578
"Szopienice Pętla",50.2605071,19.1095848
"Szopienice Pętla",50.2604198,19.1093928
"Załęże Szkoła",50.2726568,18.9647599
"Świętochłowice Polna",50.2957312,18.9167305
"Piaśniki Osiedle Skałka",50.2987554,18.9178481
"Katowice Plac Wolności",50.25977,19.0147617
"Zgoda Droga Kochłowicka",50.2777126,18.910483
"Zgoda Skrzyżowanie",50.2831365,18.9138544
"Zgoda Komenda Policji",50.2835586,18.9197707
"Piaśniki Szpital",50.3059189,18.9139417
"Piaśniki Skrzyżowanie",50.3050581,18.9189089
"Chorzów Pokoju",50.3043441,18.9230033
"Chorzów Szarlociniec",50.303456,18.9280977
"Szopienice Chemiczna",50.2593124,19.1118898
"Mysłowice Komenda Policji",50.2442403,19.1376756
"Mysłowice Świerczyny",50.2510361,19.1294664
"Mysłowice Szpital",50.2475759,19.1334036
"Mysłowice Dworzec PKP",50.2384351,19.1424788
"Mysłowice Poczta",50.2397093,19.1417772
"Mysłowice Urząd Miasta",50.2412308,19.1401251
"Mysłowice Obrzeżna Północna",50.2524792,19.1256626
"Kosztowy Rynek",50.1846453,19.1604358
"Pogoń Rybna",50.2955991,19.1338045
"Pogoń Akademiki",50.2984194,19.1344642
"Katowice Załęże",50.2639129,18.9896249
"Sosnowiec Estakada",50.281416,19.1355182
"Pogoń Mariacka",50.287629,19.1336927
"Pogoń Kościół",50.290783,19.1333227
"Kamionka Szkoła",50.1901162,18.9220033
"Kamionka Szkoła",50.1891532,18.9204998
"Dąbrowa Górnicza Urząd Pracy",50.3238203,19.1685396
"Dąbrowa Górnicza Szkoła Górnicza",50.3194838,19.1851678
"Osiedle Mydlice Dąbskiego I",50.3176517,19.1645443
"Nikiszowiec Szpital",50.2460087,19.0800144
"Wilhelmina Skrzyżowanie",50.2543407,19.0926385
"Wilhelmina Skrzyżowanie",50.2542858,19.0929451
"Wilhelmina Krakowska n/ż",50.2566463,19.0808591
"Józefów Piekarnia n/ż",50.3159758,19.1776865
"Osiedle Mydlice",50.3186917,19.1690016
"Osiedle Mydlice Pętla",50.3164464,19.1632136
"Osiedle Mydlice Dąbskiego II",50.3190043,19.1669122
"Osiedle Mydlice Dąbskiego II",50.31896,19.1674426
"Osiedle Mydlice Szpital",50.3195439,19.1750986
"Józefów Jaworowa",50.3142799,19.180405
"Osiedle Mydlice Szkoła",50.3149679,19.1678965
"Osiedle Mydlice Dąbskiego I",50.3177168,19.1640036
"Milowice Podjazdowa",50.2899459,19.0933671
"Milowice Hala Sportowa",50.2889957,19.0822066
"Będzin Paryska",50.3248134,19.1411084
"Czeladź Targowisko",50.3195783,19.0769159
"Czeladź Kombatantów",50.3205021,19.0723778
"Środula Północna",50.3003668,19.1567256
"Środula Auchan",50.3017284,19.15962
"Chorzów Dom Działkowca",50.2861793,18.9496823
"Załęże Pośpiecha",50.2637514,19.0036039
"Załęże Janasa",50.2652363,18.9974998
"Świętochłowice Gazownia",50.2846705,18.9338479
"Bytków Osiedle Chemik",50.2974773,19.0038932
"Bytków Osiedle Chemik",50.2973027,19.0039459
"Klimontów Kolonia Pstrowskiego",50.2736591,19.1868727
"Katowice AWF",50.251111,19.0043562
"Katowice Plac Miarki",50.2548444,19.0178461
"Bytkowska Centrum Targowe",50.2916091,19.0054598
"Bytkowska Centrum Targowe",50.2905967,19.005669
"Kolonia Agnieszki Promienna",50.2874275,19.0075345
"Józefowiec Szpital",50.2846055,19.0132876
"Wilhelmina Skrzyżowanie",50.2531185,19.0909804
"Katowice Piotra Skargi",50.2618293,19.0186296
"Niwka Pawiak",50.2507625,19.1649488
"Sosnowiec Urząd Miasta",50.2775818,19.1344841
"Niwka Pawiak",50.2503509,19.1629356
"Niwka Pawiak",50.2502636,19.1636378
"Będzin 11 Listopada",50.3205539,19.1293725
"Będzin Rondo",50.3242609,19.1235751
"Będzin Dworzec PKP",50.3183643,19.1331332
"Będzin Robotnicza n/ż",50.3115281,19.1462431
"Będzin Stadion",50.3185933,19.1253134
"Środula Dolna n/ż",50.3078065,19.1589587
"Będzin Brata Alberta",50.3188689,19.1377992
"Będzin Zagórska",50.3160037,19.1371068
"Będzin Stadion",50.3185256,19.1252388
"Ligota Medyków",50.227224,18.960293
"Łagiewniki Targowisko",50.3203075,18.9258142
"Katowice Wita Stwosza",50.2471115,19.0173381
"Kolonia Zuzanna",50.2352418,19.0545806
"Kolonia Zuzanna",50.2352167,19.0543516
"Będzin Aleja Kołłątaja",50.3252732,19.1378541
"Dąbrówka Mała Centrum Handlowe",50.2698676,19.0597531
"Katowice Strefa Kultury NOSPR",50.2635448,19.0277676
"Będzin Aleja Kołłątaja",50.3255266,19.1364382
"Koszelew",50.3223518,19.1566865
"Koszelew",50.3220376,19.1566057
"Piaski Centrum Handlowe",50.3217732,19.1025384
"Katowice Aleja Korfantego",50.2612518,19.0223365
"Osiedle Mydlice Mireckiego",50.3208305,19.1667809
"Piaski Centrum Handlowe",50.3223563,19.1036384
"Dąbrówka Mała Skrzyżowanie",50.2736133,19.0700005
"Katowice Strefa Kultury NOSPR",50.2632605,19.0282383
"Zagórze Osiedle",50.2909648,19.1812805
"Zagórze Mec",50.2959461,19.1838602
"Środula Osiedle",50.291125,19.1609068
"Środula Osiedle",50.2913045,19.1607844
"Zagórze Osiedle",50.2905432,19.1793964
"Brynów W. Pola",50.2442261,18.9967274
"Katowice Strefa Kultury",50.2623991,19.036997
"Katowice Strefa Kultury",50.2619556,19.0369951
"Sielec Kąpielisko",50.286894,19.1433551
"Sosnowiec Egzotarium",50.2835769,19.1054783
"Sosnowiec Estakada",50.2808865,19.1334292
"Sosnowiec Aleja Zwycięstwa",50.2797707,19.1305035
"Sosnowiec Egzotarium",50.2829024,19.1066275
"Bogucice Skrzyżowanie",50.2632553,19.0451403
"Kosztowy Rynek",50.1842901,19.1605307
"Kosztowy Rynek",50.1851244,19.1607803
"Chorzów Plac Powstańców Śl.",50.3016961,18.9520052
"Chorzów Nowa",50.3086963,18.9496471
"Milowice Pętla",50.2892704,19.0779944
"Milowice Hala Sportowa",50.289421,19.0810538
"Milowice Hala Sportowa",50.2897989,19.0812869
"Dąbrówka Mała Zespół Szkół",50.2733427,19.062272
"Dąbrówka Mała Zespół Szkół",50.2734069,19.0624223
"Załęże Bocheńskiego",50.2620633,18.9866304
"Załęże Dom Kultury",50.2704418,18.9745444
"Osiedle Tysiąclecia Zawiszy Czarnego",50.276713,18.9750703
"Osiedle Tysiąclecia Mieszka I",50.2742199,18.9745825
"Osiedle Tysiąclecia Mieszka I",50.2742886,18.9743946
"Katowice Osiedle Kopalni Wujek",50.2518222,18.9896269
"Świętochłowice Bytomska",50.2922592,18.9159998
"Zgoda Skrzyżowanie",50.2828428,18.913239
"Zgoda Skrzyżowanie",50.2834362,18.9125959
"Zgoda ZUT",50.2823989,18.9065654
"Zgoda ZUT",50.2825021,18.9067786
"Zgoda Zespół Szkół",50.2795149,18.9026114
"Kochłowice Kościół",50.2540736,18.9008529
"Kochłowice Osiedle",50.2547571,18.9124945
"Kochłowice Rynek",50.2528638,18.9013955
"Bykowina Tesco",50.2637129,18.9000521
"Ligota Panewnicka",50.2254236,18.9680699
"Kokociniec Ogrodowa",50.2343868,18.9550897
"Kochłowice Kopalnia Nowy Wirek",50.2710584,18.9073868
"Kochłowice Kopalnia Nowy Wirek",50.2721182,18.9090919
"Kochłowice Krzyż",50.2603921,18.9015537
"Kochłowice Krzyż",50.2608927,18.9015217
"Kochłowice Osiedle",50.2544234,18.9112971
"Kochłowice Rynek",50.2527494,18.9006916
"Kochłowice Tunkla",50.2646324,18.9039072
"Kochłowice Tunkla",50.2654994,18.9039103
"Zgoda Droga Kochłowicka",50.2758844,18.9096362
"Zgoda Droga Kochłowicka",50.2762199,18.9096872
"Brynów W. Pola",50.2449995,18.996524
"Katowice AWF",50.2513217,19.0046473
"Katowice Sokolska",50.2640396,19.0179928
"Brynów Kościuszki",50.2273323,18.9931782
"Brynów Pętla",50.2262167,18.9948877
"Kochłowice Cegielnia",50.2473362,18.9037324
"Kokociniec Ogrodowa",50.2348676,18.9556531
"Ligota Medyków",50.2279105,18.9599423
"Brynów Kościuszki",50.226684,18.9918265
"Kochłowice Grzybowa",50.2438292,18.9036084
"Ligota Dworzec PKP",50.2260736,18.9766228
"Ligota Kolejowa",50.2272223,18.97853
"Ligota Kłodnicka",50.2277232,18.9796107
"Ligota Panewnicka",50.2256907,18.969914
"Siemianowice Szpital",50.3056092,19.0328123
"Dąbrowa Górnicza Szkoła Górnicza",50.318354,19.1855323
"Będzin 11 Listopada",50.3198205,19.1298871
"Będzin Czeladzka",50.325385,19.120656
"Będzin Stadion",50.3194379,19.1258323
"Będzin Stadion",50.319574,19.125979
"Będzin Stadion",50.3196954,19.1246404
"Będzin Zamek",50.3250276,19.1277491
"Sielec Osiedle Zamkowa",50.2863354,19.1492031
"Sielec Wawel Kościół",50.2787761,19.1458922
"Sielec Wawel Kościół",50.2788545,19.1459465
"Józefów Jaworowa",50.3150611,19.1796785
"Będzin Krasickiego",50.3141888,19.1290011
"Będzin Krasickiego",50.3146202,19.1275776
"Będzin Krasickiego",50.3146632,19.1278776
"Będzin Małachowskiego",50.3255321,19.1345616
"Będzin Urząd Miasta",50.322728,19.1281283
"Będzin Sienkiewicza",50.3196639,19.1366163
"Osiedle Syberka Kościół",50.3192733,19.1142094
"Osiedle Syberka Kościół",50.3195681,19.1153501
"Osiedle Syberka Ośrodek Zdrowia",50.3231646,19.1178799
"Osiedle Syberka Ośrodek Zdrowia",50.323795,19.118293
"Osiedle Syberka Pawilony",50.3205127,19.1180408
"Osiedle Syberka Piłsudskiego",50.3155538,19.115753
"Osiedle Syberka Piłsudskiego",50.3158629,19.1167398
"Osiedle Syberka",50.3237075,19.1106683
"Będzin Cmentarz Komunalny",50.3047355,19.1376027
"Będzin Krasickiego",50.3145422,19.1277452
"Będzin Stadion",50.319573,19.124585
"Będzin Szybowa",50.3105528,19.132447
"Milowice Zakłady Mięsne",50.2892737,19.087908
"Modrzejów Pastewna",50.2408978,19.1478823
"Niwka Kościół",50.2389029,19.1570576
"Niwka Kościół",50.2393056,19.1582187
"Niwka Pawiak",50.2507882,19.164834
"Piaski Centrum Handlowe",50.3222759,19.1025767
"Sosnowiec Brynica",50.2743643,19.1146787
"Szopienice Morawa",50.2633006,19.1068526
"Zagórze Małe",50.2968199,19.1735741
"Zagórze Pętla",50.294822,19.179658
"Będzin Cmentarz Komunalny",50.3048033,19.1378244
"Będzin Cmentarz Komunalny",50.3048332,19.1375222
"Będzin Szybowa",50.3106822,19.1324368
"Będzin Szybowa",50.3104939,19.1323282
"Będzin Słowiańska",50.3083201,19.1371736
"Będzin Słowiańska",50.3084492,19.1374241
"Czeladź Stare Miasto",50.3192435,19.0704434
"Czeladź Stare Miasto",50.3194848,19.0702197
"Czeladź Cmentarz",50.3130696,19.0720675
"Czeladź Osiedle Słoneczne",50.3116605,19.0836297
"Czeladź Park",50.3126106,19.0703723
"Czeladź Reymonta",50.3081385,19.0725373
"Czeladź Staszica",50.3189942,19.0644384
"Dąbrowa Górnicza Huta Bankowa",50.3249965,19.174751
"Dąbrowa Górnicza Huta Bankowa",50.3251707,19.1746747
"Dąbrowa Górnicza Urząd Pracy",50.3239992,19.16758
"Milowice Centrum Handlowe",50.2858178,19.1015856
"Piaski Centrum Handlowe",50.3216912,19.0999024
"Piaski Żeromskiego",50.3093441,19.0913008
"Pogoń Akademiki",50.2978718,19.1343802
"Pogoń Akademiki",50.2988985,19.1345645
"Pogoń Aleja Mireckiego",50.2864898,19.1221779
"Pogoń Grota-Roweckiego",50.286601,19.1244358
"Pogoń Grota-Roweckiego",50.2870816,19.1216856
"Pogoń Klub Kiepury",50.2917036,19.1328408
"Pogoń Kościół",50.290187,19.1327648
"Pogoń Orla",50.2860735,19.1322141
"Pogoń Orla",50.2865396,19.1320847
"Rudna Prema-Milmet",50.2886455,19.1124162
"Rudna Prema-Milmet",50.2890093,19.111928
"Bogucice Cmentarz",50.272407,19.0475764
"Bogucice Kościół",50.2694558,19.0366725
"Będzin Niemcewicza n/ż",50.305735,19.1276458
"Będzin Osiedle 27 Stycznia n/ż",50.3064718,19.1319206
"Czeladź Józefów",50.2984429,19.0735982
"Dąbrówka Mała Le Ronda",50.2742905,19.0566222
"Dąbrówka Mała Nowosam n/ż",50.2789518,19.0817321
"Dąbrówka Mała Oczyszczalnia",50.2826053,19.0711782
"Dąbrówka Mała Ośrodek Zdrowia",50.2768928,19.0672582
"Dąbrówka Mała Pod Młynem",50.2780583,19.0697881
"Katowice Rondo",50.2663141,19.0238923
"Katowice Sokolska",50.2643292,19.0183081
"Koszutka Katowicka",50.2699279,19.0264287
"Milowice Most",50.2915933,19.0732517
"Nowy Będzin Dworzec PKP",50.3090322,19.1403779
"Pogoń Sucha",50.2957615,19.1271038
"Rudna Gospodarcza I",50.2897061,19.1178039
"Rudna Gospodarcza II",50.2947898,19.1210401
"Sosnowiec Szpital Wojewódzki",50.3053726,19.1229455
"Czeladź Stacja Pomp n/ż",50.3197104,19.0567089
"Klimontów Fińskie Domki",50.2771831,19.185376
"Zagórze Droga do Klimontowa",50.2799912,19.1751929
"Zagórze Droga do Klimontowa",50.2796012,19.1748188
"Zagórze Osiedle",50.289683,19.1803868
"Zagórze Pekin",50.2860497,19.1786204
"Zagórze Pekin",50.2845087,19.1774467
"Brynów Rzepakowa n/ż",50.2229293,18.9939742
"Brynów Cefarm n/ż",50.2246483,18.9920285
"Brynów Dworska",50.2326753,18.9956494
"Brynów Kościuszki",50.2269823,18.9944584
"Czeladź Tuwima",50.323271,19.0728602
"Czeladź Urząd Miasta",50.315836,19.0704659
"Czeladź Zespół Szkół",50.3217239,19.0780136
"Czeladź Zespół Szkół",50.3212575,19.0776011
"Katowice Chorzowska",50.2660505,19.0191518
"Katowice Mikołowska Sąd",50.2568053,19.0130153
"Katowice Mikołowska",50.2527843,19.008771
"Katowice Mikołowska",50.2545303,19.0104642
"Katowice Plac Wolności",50.2600178,19.0140288
"Katowice Plac Wolności",50.2603142,19.0128498
"Piotrowice Barcelońska",50.2064841,18.9638782
"Piotrowice Pętla",50.2008337,18.9632867
"Piotrowice Skrzyżowanie",50.2085909,18.97539
"Piotrowice Tyska",50.2111355,18.9849231
"Dańdówka Osiedle",50.2623111,19.1734033
"Dańdówka Skrzyżowanie",50.2681319,19.1769202
"Dańdówka Skrzyżowanie",50.2681629,19.1766035
"Dańdówka Skrzyżowanie",50.2687941,19.1759596
"Dańdówka Skrzyżowanie",50.2690462,19.1757724
"Kolonia Stawiska",50.2507368,19.110253
"Modrzejów Rynek",50.2414362,19.1494523
"Mysłowice Bończyka",50.2486583,19.119036
"Mysłowice Katowicka",50.2423749,19.1351949
"Mysłowice Kopalnia",50.245646,19.130649
"Mysłowice Kościół",50.2421227,19.1382335
"Mysłowice Kościół",50.2423722,19.1390871
"Niwka Cmentarz Komunalny",50.2566085,19.1692547
"Niwka Fabryka",50.2429238,19.1594609
"Niwka Kościół",50.2379076,19.1567046
"Niwka Kościół",50.2390851,19.1582132
"Wilhelmina Skrzyżowanie",50.2545758,19.09408
"Wilhelmina Zespół Szkół",50.2549567,19.0856973
"Wilhelmina Zespół Szkół",50.2552029,19.0857459
"Józefowiec Szpital",50.2840636,19.0136585
"Jęzor Centrum Handlowe",50.2283453,19.1723442
"Jęzor Jaworznicka",50.2332937,19.1621529
"Koszutka GIG",50.2711179,19.0247552
"Mysłowice Komenda Policji",50.2427894,19.1383379
"Mysłowice Szpital",50.2470969,19.1343244
"Mysłowice Targ Miejski",50.2557071,19.131684
"Mysłowice Targ Miejski",50.2563325,19.1327672
"Mysłowice Świerczyny",50.2510481,19.1295147
"Siemianowice Plac Skargi",50.3001064,19.0272852
"Siemianowice Plac Wolności",50.3061041,19.0257094
"Sosnowiec Jagiellońska Kościół",50.2695901,19.1290854
"Sosnowiec Jagiellońska",50.2671548,19.1344505
"Sosnowiec Jagiellońska-Milmex",50.2668904,19.1356529
"Sosnowiec Kościelna",50.272264,19.1289021
"Sosnowiec Radocha",50.2610978,19.1376764
"Sosnowiec Radocha",50.2633831,19.1384167
"Wełnowiec Gnieźnieńska",50.282667,19.0195815
"Wełnowiec Gnieźnieńska",50.2833301,19.0191921
"Wełnowiec Plac Alfreda",50.2925448,19.0138213
"Wełnowiec Plac Alfreda",50.2927084,19.0155413
"Bytków Kapicy",50.3035479,19.0097899
"Bytków Osiedle Młodych",50.3066213,19.0103005
"Józefowiec Szczecińska",50.279022,19.0158988
"Koszutka Iłłakowiczówny",50.2748275,19.0221665
"Koszutka Kino Kosmos",50.2684559,19.0196777
"Koszutka Kościół",50.2716081,19.0189751
"Michałkowice Kościół",50.3188362,19.0033223
"Michałkowice Park Górnik",50.315106,19.0036744
"Zawodzie Ośrodek Sportowy",50.2594261,19.0560221
"Zawodzie Paderewskiego",50.2577531,19.0383654
"Zawodzie Paderewskiego",50.2583717,19.0423142
"Brzezinka Centrum",50.2057134,19.1582979
"Brzezinka Dworcowa",50.198386,19.1597414
"Brzęczkowice Kościół",50.2224797,19.153768
"Brzęczkowice Kościół",50.2234327,19.1530685
"Brzęczkowice Ogródki Działkowe n/ż",50.2114618,19.157227
"Brzęczkowice Szkoła",50.2167812,19.1572501
"Brzęczkowice Słupna",50.2294576,19.1446157
"Dębowa Góra WSO",50.263328,19.1487777
"Dębowa Góra Wiadukt",50.2675188,19.1476629
"Kosztowy Dzióbka",50.1912899,19.1627017
"Kosztowy Kosztowska n/ż",50.177819,19.1645532
"Mysłowice Dworzec PKP",50.2378659,19.1406704
"Piaski Skrzyżowanie",50.3023534,19.0976553
"Piaski Skrzyżowanie",50.3032588,19.0970894
"Sielec Droga do Środuli n/ż",50.2885495,19.1583517
"Sielec Jaskółek n/ż",50.2834909,19.1550659
"Sielec Kombajnistów",50.2786858,19.1502372
"Sielec Wawel",50.28011,19.140985
"Sielec Wawel",50.2801871,19.1410461
"Sosnowiec Rondo Ludwik",50.2725718,19.1464338
"Sosnowiec Urząd Miasta",50.2778673,19.1346686
"Zagórze Pekin n/ż",50.2868807,19.1703157
"Zagórze Pekin",50.2855922,19.1760956
"Koszutka Słoneczna",50.2739772,19.0239944
"Michałkowice Bank",50.3242848,19.0031937
"Michałkowice Urząd Miasta",50.3179075,19.0108253
"Osiedle Tuwima Grabowa",50.293745,19.0195926
"Osiedle Tuwima Lipowa",50.2951693,19.0235582
"Siemianowice Nowy Świat",50.309205,19.0176278
"Siemianowice Łącząca",50.312584,19.0121784
"Czeladź Osiedle Borowa",50.3095821,19.0773398
"Dąbrówka Mała Pod Młynem",50.2793248,19.0685676
"Dąbrówka Mała Spółdzielnia",50.281418,19.0653709
"Dąbrówka Mała Żwirowa",50.2855828,19.0602432
"Siemianowice Mysłowicka",50.2891979,19.0537702
"Siemianowice Powstańców",50.2982244,19.041447
"Siemianowice Pszczelnicza",50.2996152,19.0379996
"Siemianowice Rynek",50.3046146,19.0272917
"Sosnowiec Sienkiewicza",50.2738517,19.1313745
"Czeladź Legionów",50.3151756,19.0643805
"Czeladź Osiedle Musiała",50.3071755,19.0672885
"Czeladź Saturn",50.3088839,19.0632149
"Będzin Szyb Ostatek n/ż",50.3070636,19.1439597
"Józefów Komuny Paryskiej n/ż",50.3078258,19.1744964
"Józefów Makro",50.3088458,19.176694
"Józefów Sokolska n/ż",50.3081437,19.1769134
"Konstantynów Fabryczna",50.2910758,19.1477719
"Konstantynów Okrzei",50.2946132,19.1454406
"Sielec Narutowicza",50.2778202,19.1476432
"Sielec Szkolna",50.2820928,19.147937
"Sielec Szkolna",50.2808312,19.1481244
"Środula Estakada n/ż",50.2984395,19.144822
"Środula Izba Wytrzeźwień n/ż",50.3023715,19.1453119
"Bobrek Bronowa",50.2525085,19.1782888
"Dańdówka Dworzec PKP",50.2660129,19.17611
"Dańdówka Osiedle Kalinowa Kościół",50.2638582,19.1819368
"Dańdówka Traugutta",50.2640789,19.1870642
"Dębowa Góra Niwecka",50.2661198,19.1520633
"Dębowa Góra Zakopiańska",50.2712824,19.1575803
"Larysz",50.1988836,19.1274056
"Morgi Kościół",50.2048517,19.1227399
"Morgi Sienkiewicza",50.2083139,19.118708
"Morgi Szkoła",50.2104606,19.1313415
"Mysłowice Tesco",50.2361651,19.1281094
"Sosnowiec Osiedle Wanda",50.27264,19.1527403
"Sosnowiec Rondo Ludwik",50.2735,19.1453119
"Sosnowiec Rondo Ludwik",50.2738685,19.1464452
"Wesoła Kopalnia",50.1817232,19.0954362
"Wesoła Mostek",50.1966554,19.1127539
"Wesoła Piastów Śląskich",50.1851063,19.1033849
"Wesoła Piastów Śląskich",50.1849729,19.1034079
"Wesoła Rynek",50.1893121,19.103379
"Ćmok Obrzeżna Zachodnia",50.2259041,19.1245091
"Ćmok Obrzeżna Zachodnia",50.2261196,19.1241453
"Ćmok Rondo (Mikołowska) n/ż",50.2343272,19.1236539
"Ćmok Tysiąclecia",50.2330919,19.1176663
"Ćmok Tysiąclecia",50.2330632,19.1175419
"Rudna Stawowa",50.2972677,19.1154938
"Sielec Park",50.2840529,19.1391519
"Sielec Park",50.284148,19.1388928
"Zagórze Gwiezdna",50.2837592,19.1842024
"Zagórze Gwiezdna",50.2836777,19.1852974
"Zagórze Pekin",50.2849432,19.1789546
"Osiedle Naftowa Akacjowa",50.2721212,19.1200565
"Osiedle Naftowa",50.268611,19.1244142
"Osiedle Naftowa Pętla",50.2659248,19.128658
"Sosnowiec Teatralna",50.2733403,19.1254914
"Warpie 1 Maja",50.320444,19.1491486
"Warpie Osiedle",50.3190931,19.1511057
"Zagórze Długosza",50.3060041,19.1828145
"Zagórze Mec",50.2960399,19.1854922
"Zagórze Technikum",50.3015823,19.1870326
"Środula Wapienna",50.2997078,19.1472402
"Brzezinka Fabryczna",50.1982887,19.1501364
"Brzezinka Laryska",50.2027438,19.1480517
"Brzezinka Pętla",50.1953326,19.1509928
"Koszutka Morcinka",50.2681149,19.0211856
"Ligota Wileńska",50.225221,18.9650171
"Ligota Ośrodek Zdrowia",50.2297582,18.9710098
"Ligota Ośrodek Zdrowia",50.2301331,18.9714479
"Stara Ligota Załęska",50.2346037,18.9774578
"Stara Ligota Stroma",50.2400192,18.9806457
"Stara Ligota Stroma",50.2406475,18.9810176
"Katowice Sokolska",50.2635041,19.0172726
"Katowice Andrzeja Dworzec",50.2565661,19.014831
"Katowice Kopernika Dworzec",50.2549616,19.014222
"Katowice Andrzeja Dworzec",50.2562051,19.0159973
"Katowice Jagiellońska",50.2540986,19.0238236
"Katowice Szkolna",50.2586792,19.0269613
"Ligota Bronisławy",50.2203292,18.9599891
"Ligota Dom Kultury n/ż",50.2278395,18.9743784
"Ligota Franciszkańska",50.2279378,18.9704742
"Ligota Stalowa",50.223689,18.9839044
"Ligota Wileńska",50.2233442,18.9643873
"Osiedle Tysiąclecia Piastów",50.2727182,18.9824049
"Osiedle Tysiąclecia Piastów",50.2736161,18.9810728
"Osiedle Tysiąclecia ZOO",50.2761029,18.9824376
"Osiedle Tysiąclecia Zawiszy Czarnego",50.2768078,18.9763848
"Park Śląski Ogród Zoologiczny",50.2761979,18.9853785
"Kochłowice Szkoła",50.2517174,18.9113442
"Katowice Aleja Korfantego",50.2615024,19.0224229
"Katowice Aleja Korfantego",50.2622719,19.022967
"Dąb Huta Baildon",50.2677079,19.0102041
"Dąb Huta Baildon",50.2674693,19.0093413
"Chorzów Estakada",50.2965461,18.9551607
"Chorzów Chopina",50.2954326,18.9560366
"Katowice Chorzowska",50.2654487,19.0178914
"Ćmok Rondo (Mikołowska) n/ż",50.2343906,19.1238106
"Kostuchna Fińskie Domki",50.1966575,18.9789399
"Zgoda Ceramiczna n/ż",50.2760019,18.9036534
"Kostuchna Szkoła",50.1934986,18.990899
"Kostuchna Szkoła",50.1935539,18.9904834
"Giszowiec Górniczego Stanu",50.218143,19.060337
"Zarzecze Węgorzy",50.1825466,18.9447682
"Zarzecze Węgorzy",50.1825551,18.9450634
"Zarzecze Kościół",50.1843432,18.9521546
"Zarzecze Kościół",50.184276,18.9519324
"Podlesie Kaczeńców",50.1907847,18.965649
"Murcki Kołodzieja",50.1934514,19.0379967
"Giszowiec Górniczego Stanu",50.2170351,19.0598974
"Chorzów Liceum Katolickie",50.2974015,18.9638338
"Sosnowiec Ostrogórska",50.2710438,19.1347387
"Sosnowiec Ostrogórska",50.2724249,19.1344853
"Warpie Wilcza n/ż",50.3195598,19.1437626
"Sosnowiec Jęzor Centrum Handlowe",50.2277592,19.1734485
"Sosnowiec Jęzor Centrum Handlowe",50.22784,19.1724175
"Bykowina Tesco",50.2652328,18.9005809
"Kochłowice Szkoła",50.251209,18.9127386
"Bykowina Korfantego",50.2660297,18.8982848
"Bykowina Korfantego",50.2659476,18.8989649
"Kochłowice Szyb Radoszowy",50.2513724,18.9291705
"Kochłowice Kalinowa",50.2499972,18.9198596
"Kochłowice Kalinowa",50.2496485,18.9181039
"Kochłowice Kopalnia Śląsk",50.2466583,18.9247213
"Obroki Droga do MPGK",50.2676278,18.9611068
"Obroki Elkop",50.2671274,18.9552177
"Obroki Hale Targowe",50.2682784,18.9595039
"Obroki MPGK",50.2653175,18.9608776
"Osiedle Tysiąclecia Ośrodek Rehabilitacji",50.2839411,18.9714502
"Osiedle Tysiąclecia Ułańska",50.2856216,18.9669343
"Osiedle Tysiąclecia Pętla",50.2827525,18.9638095
"Osiedle Tysiąclecia Oczyszczalnia",50.2802108,18.9667095
"Osiedle Tysiąclecia Chrobrego",50.2786897,18.9712334
"Osiedle Tysiąclecia Pawilon",50.279758,18.9730157
"Chorzów Stary Szyb Prezydent",50.2977523,18.9687149
"Brynów Pętla",50.2271746,18.9953487
"Obroki Hale Targowe",50.2680541,18.9586927
"Zagórze Pętla",50.2949045,19.1791702
"Zgoda Cmentarz",50.2777992,18.9230686
"Chorzów Szkoła 13",50.2968438,18.941393
"Łagiewniki Targowisko",50.3201887,18.9261248
"Kochłowice Radoszowska",50.2544675,18.918565
"Chorzów Krzyżowa",50.3101628,18.9464004
"Chropaczów Osiedle Na Wzgórzu",50.3112064,18.9242649
"Stara Ligota Rolna",50.2314908,18.9828756
"Brynów Orkana",50.2313802,18.9886732
"Chorzów Stary Plac Jana",50.3094893,18.9737678
"Maciejkowice Szyb Zygmunt",50.3231743,18.9712013
"Maciejkowice Szyb Zygmunt",50.3232756,18.9706675
"Józefowiec Osiedle",50.2811797,19.0097964
"Chorzów Stary Bożogrobców",50.3036229,18.9738321
"Ksawera Kościół",50.3242447,19.1524218
"Brynów Pętla",50.2260345,18.9949154
"Kochłowice Kalinowa",50.2490685,18.919533
"Larysz Storczyków n/ż",50.1972786,19.1196571
"Larysz",50.198595,19.1272006
"Siemianowice Huhtamaki",50.2807404,19.0452613
"Kochłowice Piłsudskiego",50.2385242,18.9083397
"Katowice Sobieskiego",50.260337,19.0118708
"Załęże Pośpiecha",50.2631571,19.0048911
"Dabrówka Mała Kościół",50.2764068,19.0694204
"Burowiec Szkoła",50.2732592,19.072628
"Burowiec Szkoła",50.2730596,19.0728888
"Burowiec",50.26903,19.0804126
"Brynów Drozdów",50.2347972,19.0001551
"Brynów Gawronów",50.2375303,19.0025085
"Brynów Gawronów",50.2382389,19.0030692
"Brynów Słowików",50.2314532,18.9973729
"Brynów Zgrzebnioka",50.240398,19.0050611
"Katowice Kościuszki Szpital",50.2462132,19.0102619
"Dąbrówka Mała Grzegorzka",50.2799195,19.066381
"Dąbrówka Mała Skrzyżowanie",50.2756823,19.0729702
"Dąbrówka Mała Pitery",50.2772977,19.0655647
"Osiedle Witosa Pętla",50.2602814,18.9656897
"Osiedle Witosa Droga Kochłowicka",50.2566278,18.9720073
"Osiedle Witosa Droga Kochłowicka",50.2564998,18.9718192
"Osiedle Witosa Centrum",50.2607351,18.9701757
"Osiedle Witosa Centrum",50.2614087,18.9704351
"Osiedle Witosa II",50.2660024,18.973352
"Osiedle Witosa II",50.2660786,18.9734021
"Osiedle Witosa Kossutha",50.2652192,18.9773085
"Załęże Wiśniowa",50.2682223,18.9791295
"Załęże Wiśniowa",50.2682717,18.9791652
"Załęże Dom Kultury",50.2705334,18.9746893
"Piotrowice Cmentarz",50.2007497,18.9763449
"Dąb Kościół",50.2714881,18.9940275
"Dąb Kościół",50.2707553,18.9955166
"Dąb Silesia City Center",50.271153,19.0063514
"Józefowiec Jabłoniowa",50.2748593,19.0090203
"Chorzów Miasto",50.2986917,18.94971
"Stara Ligota Rolna",50.2314859,18.983442
"Brynów Orkana",50.2313219,18.9893556
"Brynów Dworska",50.2342372,18.9958839
"Świętochłowice Polna",50.2958672,18.9183068
"Świętochłowice Polna",50.2967843,18.9157586
"Chorzów Batory Szyb Kleofas n/ż",50.2541296,18.9433631
"Chorzów AKS",50.2901486,18.9634917
"Chorzów AKS",50.2900996,18.9635722
"Chorzów Floriańska",50.3030167,18.9441814
"Chorzów Floriańska",50.3030377,18.9444042
"Chorzów Rynek",50.2982678,18.9547326
"Chorzów Wodociągi",50.3027547,18.9341847
"Chorzów Wodociągi",50.3027601,18.9340613
"Piaśniki Skrzyżowanie",50.3055881,18.9162766
"Piaśniki Skrzyżowanie",50.3054257,18.9171896
"Chorzów Opolska",50.3090455,18.9358407
"Osiedle Tysiąclecia ZOO",50.2763066,18.9836242
"Park Śląski Ogród Zoologiczny",50.2770284,18.9836455
"Sosnowiec Wysoka",50.280928,19.1083602
"Katowice Rondo",50.2643478,19.0235337
"Koszutka Misjonarzy Oblatów",50.270741,19.02459
"Dąb Huta Baildon",50.267993,19.0097235
"Dąb Kościół",50.2709217,18.9972349
"Dąb Silesia City Center",50.2695391,19.0029624
"Katowice Sokolska",50.2656169,19.0196684
"Katowice Stęślickiego",50.2669445,19.0142125
"Park Śląski Wejście Główne",50.2818835,18.9767328
"Park Śląski Wesołe Miasteczko",50.2724959,18.9915299
"Park Śląski Ogród Zoologiczny",50.2764545,18.985635
"Chorzów AKS",50.2902499,18.9636202
"Chorzów Chopina",50.2941534,18.9574365
"Chorzów Rynek",50.298056,18.9546923
"Chorzów Stadion Śląski",50.2876023,18.9677915
"Dańdówka Cmentarz",50.2691921,19.169837
"Zgoda Ceramiczna n/ż",50.2760925,18.9046497
"Chorzów Polna",50.3136927,18.9480544
"Łagiewniki Cmentarz",50.3250244,18.9439382
"Łagiewniki Media-Markt",50.3207186,18.9454572
"Łagiewniki Zajezdnia",50.3175205,18.9465882
"Chorzów Metalowców",50.3031849,18.9518606
"Zgoda Ceramiczna n/ż",50.2760479,18.9037351
"Zgoda Ceramiczna n/ż",50.2764236,18.904277
"Zawodzie Łączna",50.2595671,19.060977
"Zawodzie Pętla",50.2598046,19.0633781
"Szopienice Roździeńska",50.2622652,19.0716645
"Szopienice Wodociągi",50.2649849,19.0724918
"Szopienice Poczta",50.2647337,19.0898597
"Katowice Graniczna",50.2576086,19.036548
"Katowice Porcelanowa",50.2512298,19.0487375
"Chorzów Batory Dworzec PKP",50.2798885,18.9429528
"Chorzów Batory Dworzec PKP",50.2797853,18.943119
"Chorzów Batory Urząd Skarbowy",50.2827194,18.9374305
"Chorzów Batory Urząd Skarbowy",50.2830113,18.936807
"Chorzów Batory Zajezdnia",50.2747764,18.9551062
"Zgoda Skrzyżowanie",50.2835683,18.9153909
"Świętochłowice Mijanka",50.2862359,18.9273216
"Świętochłowice Mijanka",50.2861795,18.9293256
"Chorzów Cmentarz",50.286464,18.9431187
"Chorzów Dąbrowskiego",50.283613,18.9403526
"Chorzów Dąbrowskiego",50.283755,18.9402935
"Chorzów Hajducka",50.2891541,18.9456287
"Chorzów Pałac Ślubów",50.2948232,18.9533321
"Chorzów ZUS",50.2917253,18.9491458
"Katowice",50.2576223,19.0171887
"Katowice",50.2577698,19.0170993
"Katowice",50.2578554,19.0171186
"Klimzowiec Kościół n/ż",50.2803186,18.9603434
"Klimzowiec Kościół n/ż",50.2807413,18.9602571
"Klimzowiec Wojska Polskiego",50.2829413,18.9604861
"Klimzowiec Wojska Polskiego",50.2848735,18.9625211
"Osiedle Tysiąclecia Pętla",50.2825967,18.9641057
"Katowice Św. Jana",50.2578941,19.0214923
"Katowice Św. Jana",50.2579887,19.0215782
"Chorzów Gwarecka",50.2966822,18.931037
"Siemianowice Powstańców",50.2986024,19.0404853
"Siemianowice Plac Wolności",50.3066007,19.0254615
"Osiedle Tuwima Lipowa",50.2952529,19.0229884
"Wełnowiec Poczta",50.2775843,19.0221829
"Dąbrowa Górnicza Urząd Pracy Pętla",50.3247041,19.1694556
"Koszutka Iłłakowiczówny",50.2747377,19.0221227
"Koszutka Kościół",50.2718959,19.0178896
"Dąb Widok",50.2704467,19.0154503
"Dąb Widok",50.2710626,19.0158974
"Nikiszowiec Szyb Pułaski",50.2407471,19.0783621
"Nikiszowiec Szyb Pułaski",50.2406588,19.078335
"Będzin Czeladzka",50.3256691,19.1224592
"Modrzejów Pastewna",50.2408732,19.1478644
"Mysłowice Dworzec PKP",50.2384445,19.142518
"Będzin Małachowskiego",50.3255634,19.1345671
"Będzin Paryska",50.3248435,19.141122
"Dąbrowa Górnicza Huta Bankowa",50.3250872,19.1744818
"Dąbrowa Górnicza Sienkiewicza",50.325744,19.1820006
"Dąbrowa Górnicza Urząd Pracy",50.3235897,19.1672532
"Koszelew",50.3222469,19.1566798
"Będzin Cmentarz Komunalny",50.3047252,19.1376492
"Będzin Krasickiego",50.3145515,19.1277923
"Będzin Rondo",50.324754,19.124245
"Będzin Szybowa",50.3105805,19.1324701
"Będzin Słowiańska",50.3082727,19.137452
"Pogoń Akademiki",50.2984091,19.1345068
"Pogoń Kościół",50.290803,19.1333388
"Pogoń Mariacka",50.2873783,19.1337279
"Pogoń Rybna",50.2955973,19.1338537
"Sielec Osiedle Zamkowa",50.2870706,19.1481498
"Zagórze Małe",50.2967841,19.1735692
"Środula Osiedle",50.2912084,19.1608748
"Burowiec Szpital",50.2710942,19.0858343
"Sosnowiec Główny",50.2790045,19.1263205
"Panewniki Owsiana",50.2220477,18.9255954
"Panewniki Skrzyżowanie",50.2276252,18.9234619
"Panewniki Szkoła",50.2306037,18.9499605
"Panewniki Wietnamska n/ż",50.2297445,18.9433731
"Panewniki Krucza n/ż",50.2310488,18.9524244
"Panewniki Szkoła",50.2303619,18.949168
"Panewniki Wietnamska n/ż",50.229749,18.9443015
"Kokociniec Wybickiego",50.2370255,18.9608134
"Kokociniec Wybickiego",50.2375515,18.9609992
"Brynów Kopalnia Wujek",50.2413338,18.9880486
"Brynów Kopalnia Wujek",50.2413731,18.987282
"Brzęczkowice Osiedle Powstańców",50.2179838,19.1577343
"Czeladź Stacja Pomp n/ż",50.3196622,19.0570617
"Czeladź Staszica",50.3188757,19.0648505
"Katowice Spodek",50.2651429,19.0231281
"Katowice Spodek",50.2651141,19.0231575
"Będzin",50.3089524,19.1413363
"Będzin Miasto",50.3191958,19.1354692
"Ligota Szpital",50.2244495,18.9577782
"Ligota Medyków",50.2265423,18.9585652
"Stara Ligota Wiadukt",50.2385435,18.9865564
"Brynów Dziewięciu z Wujka",50.2398986,18.9892935
"Brynów Dziewięciu z Wujka",50.240129,18.9897541
"Stara Ligota Wiadukt",50.238167,18.9859567
"Katowice Rynek",50.2601743,19.0223304
"Katowice Rynek",50.2601692,19.0223734
"Katowice Plac Miarki",50.2538845,19.0169832
"Katowice Stadion AWF",50.2479173,19.0117531
"Kochłowice Cegielnia",50.2492475,18.9039212
"Kochłowice Grzybowa",50.2430192,18.9039125
"Kochłowice Ośrodek Rekreacyjny",50.234057,18.9141337
"Kochłowice Ośrodek Rekreacyjny",50.2347392,18.9132219
"Kochłowice Piłsudskiego",50.2384127,18.9084334
"Panewniki Stare Cmentarz n/ż",50.2288877,18.9167328
"Panewniki Stare Cmentarz n/ż",50.2289843,18.9166887
"Panewniki Stare",50.2281904,18.9186834
"Panewniki Stare",50.2283278,18.9197188
"Panewniki Bałtycka",50.2278734,18.9283097
"Panewniki Bema",50.2295654,18.9368079
"Panewniki Bema",50.229595,18.9369934
"Panewniki Wymysłów",50.2288513,18.9327678
"Kokociniec Kijowska",50.2363269,18.9649521
"Kokociniec Kijowska",50.2364379,18.9650655
"Kokociniec Płochy n/ż",50.2336099,18.9634861
"Kokociniec Płochy n/ż",50.2337312,18.9635323
"Panewniki Skrzyżowanie",50.2272125,18.9236337
"Ligota Poleska",50.2243495,18.9697835
"Ligota Zadole",50.2196521,18.9743931
"Kostuchna Zakłady",50.1774205,19.0129193
"Kostuchna Zakłady",50.1777038,19.0120023
"Kostuchna Kopalnia Murcki",50.1800182,19.0044633
"Kostuchna Kopalnia Murcki",50.180203,19.0038526
"Kostuchna Osiedle",50.182942,18.9990468
"Kostuchna Osiedle",50.183914,18.9976089
"Kostuchna Kościół",50.1883873,18.9920204
"Kostuchna Skrzyżowanie",50.193713,18.9816446
"Kostuchna Skrzyżowanie",50.1939387,18.9814398
"Kostuchna Fińskie Domki",50.1964121,18.9791666
"Piotrowice Cmentarz",50.2013403,18.976202
"Piotrowice Skrzyżowanie",50.2073812,18.9743604
"Piotrowice Skrzyżowanie",50.2083416,18.9735354
"Piotrowice Fabryka Maszyn",50.2112679,18.9736517
"Piotrowice Fabryka Maszyn",50.2125339,18.9744512
"Piotrowice Fabryka Maszyn",50.2126234,18.9747181
"Piotrowice Dworzec PKP",50.2157088,18.9718227
"Dąbrówka Mała Le Ronda",50.2746191,19.0578276
"Katowice Szopienice Południowe",50.2587883,19.0925056
"Katowice Szopienice Południowe",50.2588951,19.0924791
"Ligota Poleska",50.2232169,18.9692296
"Kostuchna Migdałowców",50.1886808,18.9820638
"Kostuchna Migdałowców",50.1888066,18.9820795
"Podlesie Strzelnica",50.182941,18.9783365
"Podlesie Dworzec PKP",50.1837201,18.9597368
"Podlesie Dworzec PKP",50.1838819,18.9597783
"Podlesie Azalii",50.186164,18.9585025
"Zarzecze Osiedle Grota n/ż",50.1817074,18.9359278
"Mikołów Kopalnia Barbara",50.1795316,18.9301287
"Będzin Dworzec PKP",50.3184399,19.1334231
"Bogucice Wróblewskiego",50.26675,19.0424967
"Bończyk Gałczyńskiego",50.2404891,19.1067136
"Bończyk Jastruna n/ż",50.2401653,19.1140706
"Bończyk Jastruna n/ż",50.2402239,19.1144769
"Bończyk Kościół",50.2427908,19.1122566
"Bończyk Kościół",50.2428994,19.1121538
"Janów Łokietka",50.2389496,19.1143269
"Borki Korczaka",50.2782946,19.0897021
"Burowiec Szpital",50.2719433,19.086582
"Szopienice Osiedlowa",50.2646094,19.1042453
"Szopienice Szpital Geriatryczny",50.265472,19.0946252
"Szopienice Szpital Geriatryczny",50.2657556,19.0924596
"Katowice Dworzec",50.2582769,19.0181163
"Katowice Dworzec",50.2583028,19.0177929
"Katowice Dworzec",50.2583286,19.0174696
"Katowice Dworzec",50.2583545,19.0171462
"Katowice Dworzec",50.2583804,19.0168229
"Katowice Dworzec",50.2584517,19.0181597
"Katowice Dworzec",50.2584784,19.0178378
"Katowice Dworzec",50.258505,19.0175158
"Katowice Dworzec",50.2585316,19.0171939
"Katowice Dworzec",50.2585583,19.016872
"Sielec Park",50.2837121,19.1385652
"Sosnowiec Dworzec PKP",50.2782249,19.1270295
"Sosnowiec Estakada",50.2813973,19.135543
"Sosnowiec Aleja Mireckiego",50.2789698,19.1159074
"Sosnowiec Wysoka",50.28095,19.1083971
"Brynów Gawronów I",50.2368564,19.0088215
"Brynów Gawronów I",50.2368931,19.0071666
"Brynów Gawronów II",50.2373794,19.0043678
"Brynów Gawronów II",50.237455,19.0041625
"Dańdówka Cmentarz",50.2689872,19.1683597
"Dańdówka Skrzyżowanie",50.268926,19.1759047
"Sosnowiec Ostrogórska",50.2733235,19.1357157
"Sosnowiec Rondo Ludwik",50.2733134,19.1455188
"Sosnowiec Osiedle Wanda",50.2725526,19.1526045
"Ochojec Wapienna",50.2216483,18.9894857
"Brynów Różyckiego n/ż",50.2392855,18.9945304
"Brzezinka Centrum",50.2061574,19.158286
"Brzezinka Reja",50.2065219,19.1573729
"Brzezinka Dworcowa",50.1985261,19.1596536
"Kosztowy Dzióbka",50.1914071,19.1627383
"Brzezinka Laryska",50.2027163,19.1479233
"Brzezinka Orzeszkowej",50.2011727,19.139858
"Brzezinka Orzeszkowej",50.2012568,19.1405655
"Brzęczkowice Ogródki Działkowe n/ż",50.2117345,19.1570992
"Brzęczkowice Szkoła",50.2163634,19.1572763
"Brzęczkowice Słupna",50.2293822,19.1447155
"Burowiec",50.2683063,19.0792345
"Burowiec",50.2683628,19.0798989
"Burowiec",50.2683814,19.079885
"Piotrowice Szkoła",50.2091121,18.9645454
"Telewizja Katowice",50.2952425,19.0053786
"Telewizja Katowice",50.2952777,19.0052369
"Ligota Dworzec PKP",50.2260911,18.9753763
"Bytków Kapicy",50.3029814,19.0096989
"Bytków Osiedle Młodych",50.3065398,19.0102889
"Chorzów Batory 15 Grudnia",50.2760273,18.9359644
"Chorzów Batory 16 Lipca",50.2759026,18.9403403
"Chorzów Batory Czempiela",50.2675328,18.9332881
"Chorzów Batory Czempiela",50.2679484,18.9323553
"Bogucice Cmentarz",50.2723039,19.0469392
"Ligota Rzeszótki",50.2274774,18.9820062
"Ochojec Lechicka",50.218706,18.9838781
"Ochojec Lechicka",50.2187487,18.9836317
"Murcki Leśników",50.1865533,19.0371645
"Murcki Leśników",50.1875042,19.0382921
"Murcki Wzgórze Wandy",50.192459,19.0425168
"Murcki Wzgórze Wandy",50.1950648,19.0454237
"Koszutka Kościół",50.2712971,19.0202881
"Bogucice Kościół",50.2693536,19.0360557
"Osiedle Kukuczki Podhalańska",50.2705667,19.0496019
"Dąbrówka Mała Dytrycha",50.2795075,19.0786733
"Dąbrówka Mała Dytrycha",50.2795582,19.0788452
"Dąbrówka Mała Nowosam",50.2800813,19.0819216
"Dąbrówka Mała Żyzna n/ż",50.2790899,19.0747765
"Dąbrówka Mała Żyzna n/ż",50.2789804,19.074477
"Zgoda Droga Kochłowicka",50.2777243,18.9106314
"Panewniki Wymysłów",50.2288183,18.9326333
"Murcki Osiedle",50.2038869,19.0430011
"Murcki Szebesty n/ż",50.2040525,19.0478684
"Giszowiec Szyb Roździeński",50.2226809,19.0755154
"Giszowiec Radosna",50.2232813,19.0665123
"Katowice Brynów",50.2442199,18.9833941
"Katowice Cmentarz Komunalny",50.2466884,19.0506724
"Katowice Porcelanowa",50.2497951,19.0490331
"Katowice Green Park",50.2546582,19.0475165
"Katowice Krasińskiego",50.2537388,19.0345835
"Osiedle Paderewskiego Powstańców",50.2508521,19.033206
"Osiedle Paderewskiego Powstańców",50.251319,19.0320693
"Katowice Francuska",50.2531078,19.0269413
"Osiedle Paderewskiego Graniczna",50.2472795,19.0363134
"Osiedle Paderewskiego Graniczna",50.2485079,19.034226
"Osiedle Paderewskiego Pomnik",50.2452927,19.0402829
"Osiedle Paderewskiego Pomnik",50.2460807,19.0391335
"Katowice Drzymały",50.2546704,19.016814
"Katowice Piotra Skargi",50.2616486,19.0190371
"Katowice Piotra Skargi",50.26195,19.0183192
"Kochłowice Radoszowska",50.2547267,18.9175439
"Kochłowice Przejazd Kolejowy",50.2562685,18.9260305
"Kochłowice Przejazd Kolejowy",50.2564086,18.9275384
"Kochłowice Rondo Gębały",50.2583575,18.934924
"Kochłowice Rondo Gębały",50.2583985,18.9350493
"Chorzów Batory Klonowa",50.2633095,18.9364156
"Chorzów Batory Klonowa",50.2634643,18.936451
"Chorzów Batory Osiedle",50.2675536,18.9373277
"Chorzów Batory Osiedle",50.2682748,18.9374758
"Chorzów Batory Kościół",50.2713794,18.9384149
"Chorzów Batory Kościół",50.273135,18.9390343
"Chorzów Batory Farna",50.274201,18.9377232
"Katowice Podlesie",50.1829282,18.9603594
"Katowice Piotrowice",50.213241,18.970309
"Katowice Piotrowice",50.2132856,18.9702654
"Dąb Kościół",50.2713777,18.9967574
"Katowice Stęślickiego",50.2665005,19.0110568
"Katowice Stęślickiego",50.2675741,19.0131153
"Chorzów Batory Graniczna",50.2708658,18.9313508
"Zgoda Komenda Policji",50.2835575,18.9190482
"Chorzów Batory Pętla",50.2658801,18.9438972
"Chorzów Batory Pętla",50.2659513,18.9439062
"Chorzów Batory Rondo Gębały",50.2582129,18.9361758
"Chorzów Centrum Edukacji",50.2962158,18.935563
"Chorzów Centrum Edukacji",50.2967593,18.9353732
"Chorzów Filarowa",50.3000807,18.9462972
"Zarzecze Owsiana Pętla",50.1958877,18.9319023
"Zarzecze Owsiana",50.1955018,18.930878
"Zarzecze Owsiana",50.196578,18.9324165
"Zarzecze Pstrągowa",50.1949923,18.9358973
"Zarzecze Pstrągowa",50.1954049,18.9356363
"Zarzecze Wędkarska",50.1934998,18.9406557
"Zarzecze Wędkarska",50.1937827,18.9388063
"Zarzecze Jesiotra",50.192006,18.9465799
"Zarzecze Jesiotra",50.1921894,18.9463441
"Zarzecze Szarotek",50.1887549,18.9516137
"Zarzecze Szarotek",50.1888776,18.9514125
"Mikołów Jamna",50.1917954,18.9154314
"Mikołów Katowicka",50.1882291,18.9182944
"Mikołów Młyn",50.1818179,18.9122404
"Mikołów Młyn",50.1820596,18.9123145
"Mikołów Kopalnia Barbara",50.179615,18.9306119
"Mikołów Podleska",50.1761542,18.9204611
"Mikołów Podleska",50.1763161,18.9206706
"Podlesie Poczta",50.1760667,18.9702273
"Podlesie Poczta",50.1762014,18.9697492
"Podlesie Uniczowska",50.1773105,18.9667491
"Podlesie Uniczowska",50.177421,18.9664748
"Podlesie Strzelnica",50.1828489,18.9782187
"Mikołów Koja",50.17641,18.904241
"Chorzów Batory Rondo Gębały",50.258192,18.9361817
"Chorzów Stary Szyb Prezydent",50.298144,18.9691169
"Chorzów Stary Bożogrobców",50.3019312,18.9727713
"Chorzów Stary Plac Jana",50.3093508,18.9737929
"Chorzów Batory Niedźwiedziniec Cmentarz",50.2599441,18.941217
"Chorzów Batory Park Logistyczny",50.2591694,18.9446284
"Chorzów Batory Rondo Gębały",50.2590329,18.9370583
"Chorzów Krzyżowa",50.3099355,18.944744
"Chorzów Lompy",50.2970663,18.9427975
"Chorzów Opolska",50.3090169,18.9363217
"Chorzów Plac Powstańców Śl.",50.3016704,18.9517803
"Chorzów Raciborska",50.2942985,18.9404825
"Chorzów Składowa",50.3064749,18.9327984
"Chorzów Składowa",50.3069993,18.9327895
"Chorzów Stary Wiejska",50.3157625,18.9635986
"Chorzów Uniwersytet Śląski",50.2957811,18.9348617
"Chorzów Batory Kaliny",50.2746234,18.9312956
"Chorzów Batory Kaliny",50.2748155,18.9313628
"Piotrowice Barcelońska",50.2067148,18.9649822
"Piotrowice Bukszpanowa Kaplica",50.1956046,18.9696704
"Piotrowice Działowa",50.2008761,18.971633
"Piotrowice Działowa",50.2012432,18.9716255
"Piotrowice Osiedle",50.2103481,18.982422
"Ochojec Ziołowa",50.2123107,18.9865521
"Ochojec Ziołowa II",50.2128206,18.9890938
"Ochojec Jaworowa I",50.2101516,18.9866534
"Ochojec Jaworowa II",50.211147,18.9914104
"Ochojec Jaworowa I",50.2103214,18.9873212
"Ochojec Sadowa",50.2158308,18.9899498
"Osiedle Odrodzenia Kościół",50.2030051,18.9840021
"Osiedle Odrodzenia Radockiego",50.2059557,18.9896938
"Osiedle Odrodzenia Szewska",50.207051,18.9836544
"Osiedle Odrodzenia Łętowskiego",50.2031433,18.9915186
"Ochojec Jaworowa II",50.2112144,18.9920023
"Mysłowice Brzęczkowice",50.2135449,19.1470149
"Zarzecze Szarotek Boisko",50.185352,18.9526918
"Zarzecze Szarotek Boisko",50.1854275,18.9526714
"Załęska Hałda Kolońska",50.2552511,18.9776677
"Katowice Osiedle Kopalni Wujek",50.2522731,18.9896247
"Obroki Dulęby",50.2670966,18.9681211
"Obroki Dulęby",50.2671054,18.9679352
"Załęże Bocheńskiego",50.2617713,18.9866134
"Dąb Krzyżowa",50.2793911,19.0053742
"Dąb Krzyżowa",50.2794463,19.0054315
"Załęże Janasa",50.2655028,18.9970661
"Józefowiec Osiedle",50.2811861,19.010048
"Kolonia Agnieszki Promienna",50.287412,19.0076208
"Kolonia Agnieszki Bytomska",50.2870196,19.0066698
"Wełnowiec GPP Business Park",50.2829792,19.0277754
"Wełnowiec GPP Business Park",50.2830237,19.0279429
"Józefowiec Cmentarz",50.2762744,19.0162572
"Józefowiec Cmentarz",50.2763274,19.0154595
"Szopienice Roździeńska n/ż",50.2624691,19.0718377
"Kochłowice Szyb Radoszowy",50.2514048,18.9296464
"Katowice Piotra Skargi",50.2620784,19.0180167
"Osiedle Tysiąclecia Pętla",50.2835412,18.9641435
"Osiedle Tysiąclecia Auchan",50.2744894,18.9664642
"Osiedle Witosa Kossutha NFZ",50.2646327,18.9766434
"Osiedle Witosa Rataja",50.2610964,18.9763865
"Osiedle Witosa Rataja",50.2608195,18.97719
"Katowice Meteorologów",50.2412911,19.0172443
"Katowice Meteorologów",50.2420025,19.0181253
"Katowice Ceglana Szpital Kliniczny",50.2433627,19.0151283
"Katowice Francuska WORD",50.2439663,19.024454
"Katowice Francuska WORD",50.2443287,19.0246465
"Katowice Komenda Policji",50.2465981,19.0256208
"Katowice Komenda Policji",50.2471945,19.0258237
"Katowice Francuska Sąd",50.250862,19.0264923
"Muchowiec Park",50.2349899,19.0262392
"Muchowiec Droga do Lotniska",50.2408598,19.024982
"Muchowiec Droga do Lotniska",50.2410295,19.0250285
"Zawodzie Paderewskiego",50.258038,19.0400365
"Zawodzie Uniwersytet Ekonomiczny",50.2584843,19.0463161
"Zawodzie Bohaterów Monte Cassino",50.2599725,19.0533669
"Zawodzie Ośrodek Sportowy",50.2593459,19.0551473
"Katowice Plac Miarki",50.2551356,19.0188723
"Chorzów Mariańska",50.3074564,18.9420713
"Chorzów Młodzieżowa",50.2901274,18.9588689
"Chorzów Młodzieżowa",50.2903486,18.9588521
"Chorzów Nowa",50.3085689,18.9510296
"Chorzów Nowa",50.308953,18.9511236
"Chorzów Oswaldów",50.3168085,18.9365867
"Chorzów Oswaldów",50.3168734,18.9365114
"Chorzów Stabika",50.3102515,18.9502507
"Chorzów Stary Dom Pomocy",50.3010501,18.9810929
"Chorzów Stary Dom Pomocy",50.3011352,18.9807286
"Chorzów Stary Dworzec PKP",50.3149373,18.9575024
"Chorzów Stary Dworzec PKP",50.315202,18.9568404
"Chorzów Stary Plac Piastowski",50.3009016,18.9709749
"Chorzów Stary Węzłowiec",50.2986991,18.9909274
"Chorzów Stary Węzłowiec",50.2987587,18.9906731
"Chorzów Stary Zakłady Azotowe",50.3171598,18.9811277
"Chorzów Szarlociniec",50.3033699,18.9284554
"Chropaczów Wiślan",50.3149628,18.9271074
"Katowice Rynek (Teatr Śl.)",50.2592873,19.0232652
"Załęska Hałda Kościół",50.2508057,18.9814562
"Załęska Hałda Kościół",50.2512838,18.9816769
"Chorzów Metalowców",50.3031022,18.9521421
"Chorzów Metalowców",50.303708,18.9519937
"Katowice Damrota",50.2579331,19.0308229
"Czeladź Cmentarz",50.312615,19.0735673
"Czeladź Osiedle Borowa",50.3091224,19.0778425
"Czeladź Park",50.3125173,19.0703252
"Czeladź Osiedle Musiała",50.3072589,19.0676722
"Czeladź Reymonta",50.3085036,19.0718988
"Czeladź Osiedle Słoneczne",50.3117445,19.0819429
"Czeladź Saturn",50.3088937,19.0635298
"Czeladź Targowisko",50.3195486,19.076932
"Czeladź Urząd Miasta",50.3162538,19.0705
"Ćmok Rondo (Janowska)",50.2348609,19.1235277
"Ćmok Rondo (Janowska)",50.2358194,19.1216494
"Ćmok Rondo (Partyzantów)",50.2342769,19.1247332
"Ćmok Rondo (Partyzantów)",50.234305,19.1248179
"Mysłowice Tesco",50.2358935,19.1274512
"Dańdówka Cmentarz",50.2691073,19.1690142
"Dańdówka Osiedle Kalinowa Kościół",50.2637454,19.1818944
"Dańdówka Traugutta",50.2641492,19.1863619
"Józefów Piekarnia n/ż",50.316022,19.1778114
"Osiedle Mydlice",50.3186221,19.1690757
"Milowice Centrum Handlowe",50.2866916,19.1031818
"Milowice Podjazdowa",50.2899772,19.0933726
"Milowice Zakłady Mięsne",50.2893046,19.0878982
"Sielec Osiedle Zamkowa",50.2866762,19.1489538
"Sosnowiec Sobieskiego",50.2768729,19.1192968
"Dąbrówka Mała Pod Młynem",50.2798494,19.0678123
"Dąbrówka Mała Spółdzielnia",50.2817387,19.0649112
"Dąbrówka Mała Żwirowa",50.2858542,19.0598354
"Dąbrówka Mała Oczyszczalnia",50.2829218,19.0713768
"Dąbrówka Mała Milowicka",50.2854924,19.0715427
"Kolonia Amandy n/ż",50.2452038,19.0618659
"Nikiszowiec Szyb Jan n/ż",50.2397704,19.0690293
"Kolonia Wysockiego Woźniaków",50.233699,19.0685578
"Kolonia Wysockiego Kulika",50.2366788,19.0740254
"Nikiszowiec Szpital",50.2461366,19.0800566
"Nikiszowiec Szyb Wilson",50.2500207,19.0819735
"Janów Spółdzielnia Inwalidów",50.2461756,19.0862546
"Janów Spółdzielnia Inwalidów",50.2462633,19.0863849
"Janów Oswobodzenia Cmentarna",50.2447523,19.0937788
"Janów Zamkowa",50.2419461,19.0893924
"Dębowa Góra WSO",50.2635468,19.1487815
"Dębowa Góra Niwecka",50.2662959,19.1517698
"Dębowa Góra Wiadukt",50.2679817,19.1475383
"Kolonia Zgorzelec",50.3243098,18.8991615
"Mikołów Katowicka",50.1884918,18.9178273
"Katowice Ligota",50.2259843,18.9776159
"Katowice Ligota",50.2259973,18.9777905
"Katowice Ligota",50.2260139,18.9780191
"Zgoda Zespół Szkół",50.2795186,18.9024712
"Jęzor Jaworznicka",50.2334233,19.1621087
"Józefowiec Jabłoniowa",50.2747352,19.0097813
"Józefowiec Ściegiennego",50.27741,19.0085226
"Józefowiec Ściegiennego",50.2781377,19.0089512
"Szopienice Roździeńska n/ż",50.2623021,19.0718108
"Wesoła Dzierżonia",50.1912959,19.1139319
"Świętochłowice Mijanka",50.2862089,18.9286256
NA,50.2623729,19.0176895
NA,50.2623982,19.0176303
NA,50.2624289,19.0175584
NA,50.2624561,19.0174946
NA,50.2624806,19.0174372
NA,50.2625066,19.0173763
NA,50.262702,19.0169186
NA,50.2627237,19.0168678
NA,50.2627503,19.0168056
"Dańdówka Osiedle",50.2622316,19.1731977
"Dębowa Góra Tabelna",50.2700308,19.1614085
"Dębowa Góra Tabelna",50.2700585,19.1614266
"Dębowa Góra Zakopiańska",50.2708374,19.1585217
"Dębowa Góra Zakopiańska",50.2708644,19.1585432
"Niwka Cmentarz Komunalny",50.2565699,19.1690455
"Sosnowiec Egzotarium",50.2835249,19.1057288
"Sosnowiec Osiedle Piastów",50.2796185,19.1118718
"Sosnowiec Osiedle Piastów",50.2796547,19.1118956
"Sosnowiec Osiedle Wanda",50.2725155,19.1530902
"Sosnowiec Sąd",50.2734447,19.1411131
"Sosnowiec Sąd",50.2734806,19.1411149
"Sosnowiec Aleja Zwycięstwa",50.278758,19.1299656
"Sosnowiec Małachowskiego",50.2758168,19.1325536
"Wełnowiec Gnieźnieńska",50.2827531,19.0194487
"Wełnowiec Plac Alfreda",50.2927414,19.0143878
"Wełnowiec Plac Alfreda",50.2934267,19.0129112
"Klimontów Fińskie Domki",50.2772098,19.1852316
"Klimontów Kolonia Pstrowskiego",50.2736341,19.1868718
"Kolonia Stawiska",50.2507732,19.1100986
"Murcki Cegielnia",50.2043667,19.0184054
"Murcki Tartaczna",50.1941331,19.0336075
"Szopienice Dwór",50.2620413,19.10167
"Załęże Pośpiecha",50.2640164,19.0031943
"Załęże Kościół",50.2642575,19.0003328
"Załęże Dwór",50.2675362,18.9903026
"Załęże Pośpiecha",50.2631445,19.0048875
"Załęże Wiśniowa",50.2692715,18.9801897
"Załęże Dom Kultury",50.270075,18.9751704
"Załęże Szkoła",50.2726193,18.9647592
"Będzin Brata Alberta",50.3188315,19.1374846
"Będzin Szyb Ostatek n/ż",50.3067482,19.1440457
"Środula Estakada n/ż",50.2983651,19.1448032
"Środula Izba Wytrzeźwień n/ż",50.3026997,19.1452925
"Będzin Kościuszki",50.3148426,19.1361898
"Będzin Kościuszki",50.3151985,19.1356802
"Będzin Kościuszki",50.315224,19.1359714
"Będzin Kościuszki",50.3152335,19.1358083
"Będzin Kościuszki",50.3154599,19.1355254
"Będzin Kościuszki",50.3155157,19.1356471
"Będzin Krasickiego",50.3142282,19.1291682
"Ksawera Kościół",50.3233902,19.1522354
"Warpie Osiedle",50.3190627,19.1512492
"Szopienice Chemiczna",50.2593256,19.1119174
"Szopienice Pętla",50.2605303,19.1096044
"Łagiewniki Targowisko",50.3206681,18.9263818
"Chropaczów Osiedle Na Wzgórzu",50.3116204,18.9244074
"Piaśniki Osiedle Skałka",50.2987508,18.9178867
"Piaśniki Skrzyżowanie",50.3044808,18.919169
"Łagiewniki Targowisko",50.3208072,18.9263713
"Łagiewniki Targowisko",50.3212035,18.9266733
"Lipiny Kościół",50.3073133,18.9040229
"Chorzów Metalowców",50.3031993,18.9515328
"Chorzów Łagiewnicka",50.309902,18.9416265
"Łagiewniki Adamka",50.3259298,18.9338058
"Łagiewniki Różana n/ż",50.3199316,18.9315639
"Łagiewniki Ludowa",50.3239065,18.9303385
"Obroki Droga do MPGK",50.2677399,18.9612293
"Świętochłowice Kościół",50.2909973,18.9170185
"Świętochłowice Kościół",50.2910085,18.9170252
"Świętochłowice Polna",50.2957257,18.9167845
"Świętochłowice Muzeum Powstań Śląskich",50.2884867,18.9235206
"Świętochłowice Muzeum Powstań Śląskich",50.2884978,18.9235325
"Osiedle Kukuczki Wrocławska",50.2666496,19.0466146
"Osiedle Kukuczki Sandomierska",50.2695582,19.0435993
"Szopienice Bednorza",50.2638752,19.0876184
"Szopienice Bednorza",50.2639243,19.0872995
"Szopienice Kościół",50.2619679,19.0949585
"Szopienice Morawa",50.2632779,19.1067483
"Załęże Kościół",50.2642963,19.0007049
"Zawodzie Łączna",50.2596338,19.0609267
"Zawodzie Zajezdnia",50.2598238,19.0683407
"Zawodzie Zajezdnia",50.259909,19.0673237
"Zawodzie Zajezdnia",50.2599552,19.0676221
"Maciejkowice Dwór",50.321481,18.9790224
"Maciejkowice Dwór",50.3215511,18.9787097
"Maciejkowice Dwór",50.3219251,18.9781978
"Siemianowice Mijanka",50.2949803,19.0246592
"Michałkowice Plac 11 Listopada",50.3197046,19.0041895
"Siemianowice Kopalniana",50.3016213,19.0181287
"Muchowiec Pętla",50.2301928,19.0262982
"Osiedle Paderewskiego Trzy Stawy",50.2417787,19.0351201
"Katowice Dąbrówki",50.2618758,19.008789
"Modrzejów Rynek",50.2415652,19.149094
"Mysłowice Katowicka",50.2429252,19.134395
"Mysłowice Kopalnia",50.2464602,19.1293246
"Mysłowice Towarowa",50.2431923,19.1370587
"Niwka Kościół",50.2381349,19.1559903
"Katowice Altus",50.2614793,19.0255318
"Ligota Śląska Pętla",50.211825,18.9576183
"Chorzów Racławicka",50.2811195,18.9466825
"Chorzów Racławicka",50.2812096,18.9466901
"Ligota Akademiki",50.217659,18.9577914
"Chorzów Racławicka",50.2805782,18.9463694
"Świętochłowice Gazownia",50.2844593,18.9343546
"Chorzów Floriańska",50.3031813,18.945749
"Chorzów Targowisko",50.3035456,18.9492633
"Chorzów Wodociągi",50.3027615,18.9343478
"Chorzów Styczyńskiego",50.3026231,18.9390989
"Kolonia Zygmunt",50.3224936,18.9080292
"Łagiewniki Fabryczna",50.3232152,18.9271044
"Łagiewniki Fabryczna",50.3245182,18.9274105
"Łagiewniki Ostatnia n/ż",50.3216245,18.9141578
"Łagiewniki Media-Markt",50.3213271,18.9451157
"Łagiewniki Media-Markt",50.3216143,18.9448726
"Koszutka Jesionowa",50.2746947,19.0237501
"Dańdówka Osiedle",50.2622459,19.1731607
"Pszczelnik Park",50.3104583,19.0424395
"Siemianowice Chemiczna 1A n/ż",50.2816439,19.0393501
"Chorzów Batory Piekarska",50.2760344,18.9503549
"Chorzów Batory Piekarska",50.2762681,18.9498096
"Chorzów Batory Dworzec PKP",50.2789075,18.944754
"Chorzów Batory Dworzec PKP",50.2789703,18.9445455
"Chorzów Batory Hotel",50.2815165,18.9397952
"Chorzów Cmentarna",50.2884467,18.947574
"Chorzów Dom Działkowca",50.2853015,18.9498574
"Chorzów Kościół św. Jadwigi",50.2921663,18.9464786
"Chorzów Racławicka",50.280979,18.9467592
"Chorzów Bałtycka",50.2870822,18.9393799
"Michałkowice Kościół",50.3184053,19.0033472
"Michałkowice Plac 11 Listopada",50.3197001,19.0057791
"Katowice Sobieskiego",50.2603132,19.0118515
"Katowice Sobieskiego",50.2603255,19.01186
"Załęże Janasa",50.265229,18.9974862
"Załęże Janasa",50.2655103,18.9970851
"Osiedle Naftowa",50.2683231,19.124749
"Sosnowiec Zielona Dolina",50.2727372,19.1757623
"Kosztowy Wiadukt",50.180735,19.1564188
"Kosztowy Wiadukt",50.1812561,19.1555461
"Siemianowice Rurownia",50.2916339,19.0431313
"Siemianowice Powstańców Pętla",50.2968706,19.0427548
"Chorzów Miasto Dworzec PKP",50.2984614,18.9502554
"Siemianowice Korfantego",50.30197,19.013591
"Siemianowice Korfantego",50.3021163,19.0113223
"Siemianowice Kościół",50.3014733,19.0335732
"Siemianowice Liceum Katolickie",50.3029281,19.0329725
"Siemianowice Plac Skargi",50.2987744,19.0270102
"Michałkowice Fabud",50.3208199,19.011932
"Wesoła Rynek",50.1885712,19.1028186
"Wesoła Dzierżonia",50.1910283,19.1132708
"Mysłowice Brzezinka",50.197507,19.1544326
"Krasowy Orła Białego",50.1872892,19.1280305
"Krasowy Orła Białego",50.1876965,19.1268437
"Krasowy Ośrodek Zdrowia",50.1893663,19.1219389
"Krasowy Ośrodek Zdrowia",50.1894258,19.1217585
"Krasowy Skrzyżowanie",50.1856347,19.1344216
"Krasowy Skrzyżowanie",50.1857411,19.1345164
"Larysz Storczyków n/ż",50.1971504,19.1186962
"Wesoła Mostek",50.1956942,19.1127087
"Wesoła Pogodna",50.2042618,19.1021736
"Wesoła Szkoła",50.2023063,19.1065899
"Chorzów Batory 16 Lipca",50.2762206,18.9404108
"Chorzów Styczyńskiego",50.3018026,18.9398812
"Morgi Kościół",50.204906,19.1226773
"Warpie Wilcza n/ż",50.3195542,19.143714
"Sosnowiec Dęblińska",50.2748198,19.1221742
"Środula Dolna n/ż",50.3077275,19.1592387
"Józefów Auchan",50.3056573,19.1666222
"Józefów Auchan",50.3058903,19.1657661
"Będzin Huta",50.3106242,19.1409371
"Będzin Huta",50.3107508,19.1407133
"Józefowiec Szczecińska",50.2791977,19.0158366
"Józefowiec Ściegiennego",50.2776024,19.0085317
"Pogoń Sucha",50.2958642,19.126388
"Siemianowice Hutnicza n/ż",50.2990687,19.0238118
"Chorzów Miasto Dworzec PKP",50.2983548,18.9502496
"Brzezinka Nowochrzanowska",50.2023346,19.1595488
"Sielec Kąpielisko",50.2867277,19.1441679
"Pogoń Orla",50.285105,19.1315265
"Katowice Dworzec PKP",50.2595831,19.0187737
"Siemianowice Nowy Świat",50.3096096,19.0163646
"Katowice Szopienice Południowe",50.2591111,19.0923983
"Katowice Zawodzie",50.2573806,19.0574728
"Katowice",50.2572484,19.0170426
"Chorzów Batory",50.2783404,18.9445312
"Chorzów Batory",50.2784128,18.9446587
"Chorzów Batory",50.2785185,18.9448252
"Chorzów Stary",50.316045,18.9577597
"Chorzów Stary",50.316221,18.9581407
"Katowice Załęże",50.2638188,18.9895405
"Katowice",50.2574611,19.0170986
"Katowice",50.2575873,19.017123
"Szopienice Dwór",50.2619484,19.1016332
"Brzezinka Autostrada",50.2051642,19.1761356
"Janów Janowska",50.2373964,19.1178527
"Janów Łokietka",50.2387127,19.1149606
"Morgi Pukowca",50.2048677,19.1330185
"Morgi Pukowca",50.2057817,19.1328296
"Morgi Skrzyżowanie",50.2097256,19.1319979
"Wilhelmina Skrzyżowanie",50.2538774,19.091289
"Krasowy Kościół",50.1841973,19.1415957
"Szopienice Stawiki",50.2692351,19.1110625
"Szopienice Stawiki",50.2695859,19.1112484
"Szopienice Dwór",50.2618946,19.101996
"Czeladź Józefów",50.2979449,19.0739303
"Czeladź Tuwima",50.3238467,19.072623
"Katowice Moniuszki",50.2607578,19.0233394
"Szopienice Kościół",50.2634957,19.0946684
"Sosnowiec Brynica",50.2743946,19.1146355
"Chorzów Boczna",50.2971999,18.9366747
"Chorzów Kościół św. Jadwigi",50.2921744,18.9464609
"Chorzów Strzelców Bytomskich",50.2922059,18.9450695
"Chorzów Strzelców Bytomskich",50.2925679,18.9447307
"Chorzów Szkoła 13",50.2975037,18.9413925
"Klimzowiec Gałeczki",50.2848546,18.9591627
"Klimzowiec Racławicka",50.2815402,18.9548348
"Klimzowiec Racławicka",50.2819683,18.9554179
"Murcki Dworzec PKP",50.2022164,19.0240121
"Katowice Damrota GTC",50.2487769,19.0283511
"Nikiszowiec Pętla",50.2484487,19.079891
"Osiedle Tuwima Poradnia",50.295065,19.0198437
"Chorzów Liceum Katolickie",50.2976545,18.9629
"Chorzów Stary Bożogrobców",50.3026093,18.9744989
"Chorzów Styczyńskiego",50.3026381,18.9381613
"Osiedle Witosa Droga Kochłowicka",50.2559751,18.9703981
"Maciejkowice Spółdzielnia",50.3225076,18.9751847
"Maciejkowice Spółdzielnia",50.3225811,18.9746385
"Dąbrowa Górnicza Centrum",50.325285,19.1879199
"Łagiewniki Fabryczna",50.3241653,18.9271634
"Łagiewniki Fabryczna",50.3235771,18.9270671
"Chorzów Batory Zajezdnia",50.274447,18.9565309
"Katowice Zawodzie",50.2570929,19.0574349
"Katowice Zawodzie",50.2571838,19.0574456
"Mysłowice",50.2377237,19.1413449
"Mysłowice",50.237761,19.141512
"Sielec Kąpielisko",50.2867815,19.1433922
"Sielec Kąpielisko",50.2868081,19.1433834
"Konstantynów Centrum Handlowe",50.2884779,19.1488734
"Konstantynów Fabryczna",50.2919331,19.147217
"Konstantynów Fabryczna",50.2919454,19.1472763
"Konstantynów Okrzei",50.294295,19.1456665
"Konstantynów Okrzei",50.2947262,19.1453374
"Sielec Szkolna",50.281697,19.1480361
"Sielec Szkolna",50.281695,19.1480852
"Milowice Pętla",50.2892985,19.0781796
"Dańdówka Klonowa",50.2726079,19.1778804
"Niwka Pawiak",50.2507735,19.1648879
"Piotrowice Wojska Polskiego",50.205002,18.9715746
"Osiedle Tuwima Grabowa",50.2929146,19.0196254
"Osiedle Tuwima Poradnia",50.29525,19.0199414
"Świętochłowice",50.2890329,18.9180451
"Katowice",50.2579772,19.0171545
"Panewniki Bałtycka",50.2279841,18.928908
"Katowice Hutnicza",50.2521859,19.0562215
"Katowice Porcelanowa Zakłady",50.2520504,19.0518733
"Katowice Porcelanowa Zakłady",50.2521194,19.0539084
"Mysłowice Chopina",50.2429406,19.131192
"Mysłowice Chopina",50.2435928,19.1326087
"Szopienice Kościół",50.2620097,19.094967
"Szopienice Kościół",50.2627805,19.0951911
"Katowice Cmentarz Komunalny",50.2466283,19.0509731
"Szopienice Kocura n/ż",50.2661519,19.0888685
"Osiedle Kukuczki Lubuska",50.2683206,19.0509294
"Katowice Dworzec PKP",50.2596069,19.0175501
"Chorzów Rynek",50.2980192,18.9544678
"Chorzów Rynek",50.2980322,18.9545476
"Chorzów Batory Hotel",50.2816444,18.9396027
"Dąbrówka Mała Wiertnicza n/ż",50.2724361,19.0548932
"Katowice Mickiewicza",50.2609486,19.0189199
"Michałkowice Park Górnik",50.3138915,19.0037976
"Wełnowiec Gnieźnieńska",50.2830069,19.0187435
"Borki Pętla",50.2787811,19.0949795
"Katowice Zajezdnia n/ż",50.2637459,19.0113753
"Załęże Dwór",50.2669295,18.9916643
"Załęże Dwór",50.2670234,18.9913027
"Szopienice Dwór",50.2628474,19.1036494
"Borki Korczaka",50.2785393,19.0897803
"Chorzów Batory Rondo Gębały",50.259156,18.9374359
"Maciejkowice Michałkowicka",50.3210055,18.9845344
"Maciejkowice Michałkowicka",50.3210637,18.9836859
"Michałkowice Budryka",50.3222285,18.9974885
"Michałkowice Budryka",50.3223168,18.9975184
"Michałkowice Domina n/ż",50.3202059,18.9995204
"Michałkowice Urząd Miasta",50.318785,19.0105935
"Siemianowice Kolonia Wojewódzka",50.2930906,19.0482309
"Siemianowice Mysłowicka",50.2887858,19.0545582
"Siemianowice Pszczelnicza",50.3002812,19.0364032
"Osiedle Syberka Pawilony",50.3202098,19.1180248
"Chropaczów Ratusz",50.3140483,18.9132506
"Mysłowice Szpital",50.2476242,19.1334191
"Kolonia Agnieszki Bytomska",50.2857047,19.0068122
"Dąb Szkoła",50.2743069,18.9997545
"Dąb Szkoła",50.2752345,19.0004882
"Dąbrówka Mała Milowicka",50.286027,19.0714368
"Siemianowice Bomis n/ż",50.2838514,19.032973
"Siemianowice Bomis n/ż",50.283915,19.0327453
"Siemianowice Chemiczna 1A n/ż",50.2816718,19.0394504
"Siemianowice Chemiczna n/ż",50.2824821,19.044855
"Siemianowice Chemiczna n/ż",50.2825638,19.0450732
"Siemianowice Fabryczna",50.2958747,19.0337014
"Siemianowice Fabryczna",50.295874,19.0341153
"Siemianowice Głowackiego",50.2999456,19.0313134
"Siemianowice Głowackiego",50.3001129,19.0309753
"Siemianowice Huhtamaki",50.2803259,19.0447455
"Siemianowice Interkomis n/ż",50.2882338,19.0354287
"Siemianowice Interkomis n/ż",50.2884186,19.0356394
"Siemianowice Konopnickiej",50.2906775,19.0360383
"Siemianowice Konopnickiej",50.2908023,19.0359153
"Michałkowice Plac Sportowy",50.3195645,18.9969256
"Michałkowice Plac Sportowy",50.3195706,18.997199
"Bańgów Strefa Zakłady",50.322526,19.0452137
"Brynów Różyckiego n/ż",50.2383847,18.9945066
NA,50.2627801,19.0167358
"Zgoda Osiedle Słoneczne",50.2738405,18.9237254
"Zgoda Brzozowa",50.2782796,18.9233514
"Zgoda Osiedle Słoneczne",50.2738354,18.9253658
"Mysłowice Bytomska",50.2467532,19.1325026
"Mysłowice Bończyka",50.2485358,19.1195512
"Wesoła Piastów Śląskich",50.1841521,19.1049283
"Chorzów Stabika",50.3108647,18.9488734
"Pogoń Ciepła",50.293708,19.1410994
"Pogoń Rybna",50.2950769,19.1343383
"Janów Osiedle",50.2395813,19.093083
"Janów Osiedle",50.2401099,19.093207
"Janów Ośrodek Bolina",50.2319153,19.0863195
"Janów Strumienna",50.2353407,19.0911664
"Brzezinka Cmentarna",50.2048163,19.1708602
"Janów Osiedle Chopina Park",50.2389533,19.1219337
"Janów Osiedle Chopina Park",50.2390326,19.122093
"Mysłowice Dworzec PKP",50.2371488,19.1411123
"Mysłowice Staszica",50.2419011,19.1209008
"Mysłowice Staszica",50.2420239,19.121185
"Mysłowice Wielka Skotnica",50.244887,19.1272177
"Janów Leśnego Potoku",50.2427665,19.0959308
"Mysłowice",50.2377849,19.1416162
"Katowice Mickiewicza",50.2606507,19.0196014
"Katowice Mickiewicza",50.2607609,19.0193494
"Katowice Mickiewicza",50.2608655,19.0191101
"Czeladź Tuwima",50.3226201,19.0718755
"Sielec Narutowicza",50.2787087,19.148014
"Dębowa Góra Zakopiańska",50.270908,19.1586414
"Rudna Gospodarcza I",50.2910597,19.1187788
"Chorzów Batory Zajezdnia",50.2744347,18.956525
"Chorzów Batory Pętla",50.2659335,18.9434832
"Sosnowiec Osiedle Piastów",50.2794348,19.1120625
"Sosnowiec Osiedle Piastów",50.2797155,19.112144
"Środula Auchan",50.3015454,19.1595674
"Katowice Jordana",50.2517494,19.015136
"Mysłowice Brzezinka",50.1967517,19.1546478
"Mysłowice Brzęczkowice",50.2129702,19.1472158
"Środula Północna",50.3004744,19.1559058
"Chropaczów Szkoła",50.3112228,18.91283
"Będzin Miasto",50.3191848,19.1355989
"Będzin",50.3090125,19.1414795
"Świętochłowice Dworcowa",50.2897616,18.9188016
"Chorzów Styczyńskiego",50.3027192,18.9403303
"Bobrek Bronowa n/ż",50.258008,19.1849572
"Sosnowiec Jagiellońska Kościół",50.2691519,19.1300768
"Chorzów Gwarecka",50.2955556,18.9310043
"Osiedle Ustronie Chopina",50.2899803,18.9022736
"Osiedle Ustronie Morcinka",50.2923047,18.9070813
"Osiedle Ustronie Szkoła",50.2900695,18.9061441
"Świętochłowice Sikorskiego Szkoła",50.293361,18.9127691
"Świętochłowice Szpitalna Cmentarz",50.2920287,18.9283333
"Sielec Klimontowska",50.2776497,19.1515756
"Sosnowiec Kosów",50.2754198,19.1644053
"Koszutka Słoneczna",50.273051,19.0248997
"Katowice Strefa Kultury Muzeum Śląskie",50.2632179,19.0357083
"Katowice Fabryka Porcelany",50.254238,19.0616746
"Chorzów Stadion Śląski Pętla Zach.",50.2861053,18.9702612
"Chorzów Rynek",50.2980684,18.9548026
"Chorzów Batory Dworzec PKP",50.2797752,18.9445553
"Będzin Kościuszki",50.3143019,19.135872
"Będzin Kościuszki",50.3155066,19.1358096
"Dańdówka Jedności Szkoła",50.268358,19.1789558
"Dańdówka KSSE",50.2690896,19.185723
"Dańdówka KSSE",50.269181,19.1846244
"Sosnowiec Kościelna",50.2716715,19.1284484
"Sosnowiec Wspólna",50.2744707,19.1278793
"Wesoła Piastów Śląskich",50.1837342,19.1022817
"Dąb Silesia Business Park",50.2697637,18.999594
"Warpie 1 Maja",50.3203345,19.1492301
"Zagórze Mec",50.2967078,19.183084
"Będzin Robotnicza n/ż",50.3116195,19.1460335
"Zagórze Długosza",50.3052512,19.1841802
"Rudna Gospodarcza II",50.2943743,19.1205583
"Środula Wapienna",50.2993586,19.1470629
"Michałkowice Bank",50.3238533,19.0032224
"Sosnowiec Urząd Miasta",50.2776522,19.1344262
"Sosnowiec Urząd Miasta",50.2777246,19.1345763
"Sosnowiec Urząd Miasta",50.2780101,19.1347609
"Sosnowiec Urząd Miasta",50.2780278,19.1346676
"Murcki Wiadukt n/ż",50.1991359,19.0545266
"Murcki Wiadukt n/ż",50.1993274,19.0547919
"Wesoła Droga do Giszowca",50.2055027,19.076264
"Wesoła Droga do Giszowca",50.2056011,19.0766903
"Wesoła Mostek",50.1969278,19.1122175
"Wesoła Mostek",50.1971002,19.112032
"Wesoła Pogodna",50.2046639,19.1015156
"Wesoła Posesja 72a",50.2072039,19.0909427
"Wesoła Posesja 72a",50.2072091,19.0910499
"Rudna Plonów",50.2921024,19.1086387
"Rudna Plonów",50.2922928,19.1089121
"Rudna Stawowa",50.2971164,19.1157427
"Zagórze Pekin n/ż",50.2870967,19.1693072
"Sielec Droga do Środuli n/ż",50.2879978,19.1576352
"Sielec Jaskółek n/ż",50.2850097,19.1557054
"Sielec Kombajnistów",50.2793887,19.1505171
"Sosnowiec Aleja Zwycięstwa",50.2796913,19.130327
"Sosnowiec Dworzec PKP",50.2781486,19.1271315
"Siemianowice FEZ n/ż",50.2959508,19.0387206
"Siemianowice FEZ n/ż",50.2959793,19.0396132
"Chorzów Cmentarna",50.2884408,18.947555
"Chorzów Cmentarna",50.2887624,18.9473441
"Chorzów Dom Działkowca",50.2851284,18.9509238
"Chorzów Dom Działkowca",50.2854484,18.9506148
"Kosztowy Kosztowska n/ż",50.1773682,19.1648484
"Bogucice Markiefki",50.2653749,19.0415446
"Dąbrówka Mała Cmentarz n/ż",50.2763961,19.0643837
"Osiedle Odrodzenia Bażantów n/ż",50.201326,18.9894734
"Piotrowice Wojska Polskiego",50.2051014,18.971582
"Chorzów Rynek",50.2979576,18.9548415
"Chorzów Nomiarki",50.2906609,18.9332928
"Będzin Cieszkowskiego",50.3100634,19.1506892
"Będzin Cieszkowskiego",50.3100779,19.1509629
"Chorzów Omańkowskiej",50.2891735,18.9422688
"Zawodzie Łączna",50.2595226,19.0618495
"Mikołów Sienkiewicza",50.1923826,18.9220556
"Świętochłowice Żołnierska",50.2890246,18.9321984
"Będzin Gospodarcza Brama Śląska",50.3148602,19.1545076
"Będzin Gospodarcza Brama Śląska",50.3148824,19.1534952
"Będzin Johnson Electric",50.3125402,19.1511865
"Będzin Johnson Electric",50.3130776,19.1515574
